id,impact.gap,impact.magnitude,impact.significance,location.depth,location.distance,location.full,location.latitude,location.longitude,location.name,time.day,time.epoch,time.full,time.hour,time.minute,time.month,time.second,time.year
nc72666881,122,1.43,31,15.12,0.1034,"13km E of Livermore, California",37.6723333,-121.619,California,27,1.47E+12,7/27/2016 00:19,0,19,7,43,2016
nc72666891,249,0.06,0,4.39,0.02743,"12km SE of Mammoth Lakes, California",37.5765,-118.8591667,California,27,1.47E+12,7/27/2016 00:31,0,31,7,37,2016
nc72666896,122,0.4,2,1.09,0.02699,"6km SSW of Mammoth Lakes, California",37.5958333,-118.9948333,California,27,1.47E+12,7/27/2016 00:35,0,35,7,44,2016
ci37640584,149,1.2,22,0.18,0.1688,"12km SE of Bodfish, CA",35.503,-118.4058333,California,27,1.47E+12,7/27/2016 01:03,1,3,7,0,2016
nc72666901,87,1.67,43,12.91,0.106,"13km E of Livermore, California",37.673,-121.6133333,California,27,1.47E+12,7/27/2016 01:04,1,4,7,32,2016
ci37640592,75,0.48,4,13.85,0.04401,"14km WNW of Anza, CA",33.5888333,-116.8165,California,27,1.47E+12,7/27/2016 01:09,1,9,7,51,2016
nc71104689,190,0.51,4,4.3,0.0986,"14km S of Ridgemark, California",36.6811667,-121.3368333,California,27,1.47E+12,7/27/2016 01:17,1,17,7,18,2016
nc71104624,315,0.53,4,2.77,0.05199,"27km NE of Hollister, California",37.0286667,-121.19,California,27,1.47E+12,7/27/2016 01:17,1,17,7,29,2016
ci37640600,92,0.73,8,1.5,0.08636,"24km E of Coso Junction, CA",36.0758333,-117.6788333,California,27,1.47E+12,7/27/2016 01:42,1,42,7,44,2016
nc71104629,163,0.22,1,1.8,0.0528,"26km NE of Hollister, California",37.0263333,-121.1936667,California,27,1.47E+12,7/27/2016 01:44,1,44,7,49,2016
nc72666906,64,1.22,23,1.41,0.006449,"2km E of The Geysers, California",38.7763333,-122.7245,California,27,1.47E+12,7/27/2016 01:45,1,45,7,59,2016
nc72666911,54,0.55,5,2.41,0.005954,"9km WNW of Cobb, California",38.8415,-122.8288333,California,27,1.47E+12,7/27/2016 01:48,1,48,7,58,2016
ci37640608,98,0.81,10,2.04,0.138,"17km NE of Coachella, CA",33.7878333,-116.037,California,27,1.47E+12,7/27/2016 01:58,1,58,7,26,2016
ci37640616,64,0.75,9,3.18,0.04043,"20km E of Little Lake, CA",35.9231667,-117.6898333,California,27,1.47E+12,7/27/2016 02:20,2,20,7,53,2016
nc72666931,55,1.4,30,2.05,0.01002,"7km WNW of Cobb, California",38.8348333,-122.8023333,California,27,1.47E+12,7/27/2016 02:22,2,22,7,7,2016
ci37640624,56,1.13,20,2.7,0.04073,"7km NE of Little Lake, CA",35.978,-117.8535,California,27,1.47E+12,7/27/2016 02:38,2,38,7,29,2016
nc72666946,78,0.47,3,4.91,0.0235,"2km ESE of Mammoth Lakes, California",37.6363333,-118.9426667,California,27,1.47E+12,7/27/2016 02:42,2,42,7,50,2016
ci37640640,126,0.28,1,3.93,0.04043,"6km NE of Little Lake, CA",35.9758333,-117.8596667,California,27,1.47E+12,7/27/2016 03:02,3,2,7,18,2016
nc72666956,53,1.75,47,1.56,0.0119,"0km E of The Geysers, California",38.7781667,-122.7505,California,27,1.47E+12,7/27/2016 03:56,3,56,7,19,2016
nc72666961,74,0.62,6,2.25,0.005599,"3km S of Cobb, California",38.7885,-122.7218333,California,27,1.47E+12,7/27/2016 04:00,4,0,7,49,2016
nc72666966,137,0.8,10,1.54,0.07576,"19km SE of Mammoth Lakes, California",37.5141667,-118.8263333,California,27,1.47E+12,7/27/2016 04:06,4,6,7,43,2016
ci37640656,79,0.06,0,1.41,0.03807,"12km NE of Little Lake, CA",36.0171667,-117.8111667,California,27,1.47E+12,7/27/2016 04:44,4,44,7,0,2016
ci37640648,78,0.75,9,11.04,0.04434,"15km ESE of Anza, CA",33.5145,-116.5175,California,27,1.47E+12,7/27/2016 04:45,4,45,7,58,2016
ci37640664,75,1.6,39,10.02,0.02385,"7km NNE of Imperial, CA",32.905,-115.5326667,California,27,1.47E+12,7/27/2016 04:48,4,48,7,43,2016
nc72666971,62,1.84,52,4.84,0.06195,"12km S of Ridgemark, California",36.7,-121.3381667,California,27,1.47E+12,7/27/2016 06:02,6,2,7,53,2016
nc72666976,194,1.75,47,8.4,0.1164,"6km SW of Huron, California",36.1681667,-120.1663333,California,27,1.47E+12,7/27/2016 06:12,6,12,7,53,2016
ci37640696,91,0.59,5,10.44,0.0874,"10km NNE of Trabuco Canyon, CA",33.7398333,-117.5278333,California,27,1.47E+12,7/27/2016 06:23,6,23,7,43,2016
ci37640704,86,0.84,11,8.03,0.1368,"24km ESE of Julian, CA",33.0166667,-116.3543333,California,27,1.47E+12,7/27/2016 06:29,6,29,7,6,2016
nc72666986,101,0.71,8,2.11,0.008326,"6km NW of The Geysers, California",38.8160019,-122.8150024,California,27,1.47E+12,7/27/2016 06:45,6,45,7,37,2016
nc72666991,94,1.02,16,2.32,0.009271,"6km NW of The Geysers, California",38.8123322,-122.8181686,California,27,1.47E+12,7/27/2016 07:39,7,39,7,49,2016
ci37640736,85,1.02,16,12.58,0.1562,"27km SSW of Ocotillo Wells, CA",32.9211667,-116.2398333,California,27,1.47E+12,7/27/2016 08:05,8,5,7,33,2016
ci37640744,70,1.34,28,12.5,0.03139,"13km N of Cabazon, CA",34.0308333,-116.7703333,California,27,1.47E+12,7/27/2016 08:16,8,16,7,46,2016
ci37640752,78,1.03,16,3.34,0.0749,"25km WNW of Desert Center, CA",33.7811667,-115.6553333,California,27,1.47E+12,7/27/2016 08:28,8,28,7,52,2016
nc72667001,59,1.22,23,8.37,0.03158,"6km NE of East Foothills, California",37.4285,-121.7716667,California,27,1.47E+12,7/27/2016 08:34,8,34,7,35,2016
nc72667006,92,1.74,47,4.3,0.05841,"8km SSW of Kelseyville, California",38.9155,-122.8926667,California,27,1.47E+12,7/27/2016 08:57,8,57,7,30,2016
ci37640768,54,1.53,36,0.58,0.07573,"9km E of Yucaipa, CA",34.018,-116.9448333,California,27,1.47E+12,7/27/2016 09:17,9,17,7,47,2016
ci37640776,48,1.82,51,6.73,0.1328,"24km ESE of Julian, CA",33.0133333,-116.3573333,California,27,1.47E+12,7/27/2016 09:19,9,19,7,31,2016
ci37640792,62,0.61,6,1.1,0.0006807,"16km NE of Little Lake, CA",36.0255,-117.7645,California,27,1.47E+12,7/27/2016 09:37,9,37,7,54,2016
nc72667016,67,2.09,67,5.37,0.02263,"20km SSE of Ridgemark, California",36.646,-121.2611667,California,27,1.47E+12,7/27/2016 09:50,9,50,7,11,2016
nc72667021,52,1.16,21,1.42,0.006506,"7km W of Cobb, California",38.8293333,-122.8135,California,27,1.47E+12,7/27/2016 09:50,9,50,7,20,2016
ci37640816,62,0.72,8,1.54,0.002016,"16km NE of Little Lake, CA",36.0243333,-117.7675,California,27,1.47E+12,7/27/2016 10:02,10,2,7,16,2016
ci37640824,106,0.96,14,1.56,0.00212,"16km NE of Little Lake, CA",36.0273333,-117.7651667,California,27,1.47E+12,7/27/2016 10:06,10,6,7,4,2016
nc72667036,164,1.11,19,1.66,0.0617,"7km SSW of Kelseyville, California",38.9195,-122.8885,California,27,1.47E+12,7/27/2016 11:19,11,19,7,34,2016
nc72667046,307,0.65,6,0.66,0.1457,"21km SSE of Mammoth Lakes, California",37.4673333,-118.8923333,California,27,1.47E+12,7/27/2016 11:27,11,27,7,53,2016
nc72667051,62,1.56,37,2.24,0.007541,"9km WNW of The Geysers, California",38.8226667,-122.8446667,California,27,1.47E+12,7/27/2016 12:15,12,15,7,54,2016
ci37640856,38,2.17,72,1.68,0.07799,"20km ENE of Thermal, CA",33.7266667,-115.9446667,California,27,1.47E+12,7/27/2016 12:17,12,17,7,34,2016
ci37640864,75,0.68,7,11.2,0.07319,"15km ESE of Anza, CA",33.5185,-116.5193333,California,27,1.47E+12,7/27/2016 12:45,12,45,7,46,2016
nc72667056,167,2.25,78,21,0.02659,"22km S of San Joaquin, California",36.4063333,-120.2075,California,27,1.47E+12,7/27/2016 12:54,12,54,7,54,2016
ci37640896,19,2.03,64,13.68,0.0459,"5km ENE of Cabazon, CA",33.9368333,-116.7363333,California,27,1.47E+12,7/27/2016 13:22,13,22,7,12,2016
ci37640904,38,1.28,25,1.95,0.07724,"21km ENE of Thermal, CA",33.7276667,-115.9425,California,27,1.47E+12,7/27/2016 13:29,13,29,7,17,2016
ci37640936,149,0.71,8,16.17,0.1197,"17km N of Borrego Springs, CA",33.4063333,-116.3943333,California,27,1.47E+12,7/27/2016 13:43,13,43,7,23,2016
ci37640944,37,1.59,39,1.43,0.07916,"21km ENE of Thermal, CA",33.7288333,-115.9443333,California,27,1.47E+12,7/27/2016 13:47,13,47,7,1,2016
ci37640960,23,2.62,107,4.17,0.1253,"12km SSE of Big Bear City, CA",34.1613333,-116.8086667,California,27,1.47E+12,7/27/2016 13:59,13,59,7,44,2016
ci37640976,73,0.4,2,14.55,0.06129,"9km N of Anza, CA",33.6343333,-116.6635,California,27,1.47E+12,7/27/2016 14:54,14,54,7,38,2016
ci37640992,66,1.59,39,-1.4,0.1113,"11km SSW of Lucerne Valley, CA",34.3563333,-117.0238333,California,27,1.47E+12,7/27/2016 14:57,14,57,7,47,2016
ci37641016,46,1.36,28,-0.55,0.04769,"4km SE of Home Gardens, CA",33.8495,-117.4875,California,27,1.47E+12,7/27/2016 15:32,15,32,7,32,2016
nc72667096,215,1.84,52,1.44,0.1657,"24km WNW of San Simeon, California",35.7406667,-121.438,California,27,1.47E+12,7/27/2016 15:38,15,38,7,17,2016
ci37641032,50,1.02,16,1.19,0.08604,"21km ENE of Thermal, CA",33.7351667,-115.9486667,California,27,1.47E+12,7/27/2016 15:53,15,53,7,25,2016
nc72667106,87,0.75,9,5.19,0.02757,"12km SE of Mammoth Lakes, California",37.5753333,-118.8585,California,27,1.47E+12,7/27/2016 16:17,16,17,7,53,2016
ci37641064,61,0.9,12,-1.01,0.06748,"12km SE of Tehachapi, CA",35.0581667,-118.3453333,California,27,1.47E+12,7/27/2016 16:36,16,36,7,27,2016
ci37641112,147,0.68,7,15.88,0.05913,"11km SE of Valle Vista, CA",33.6805,-116.8106667,California,27,1.47E+12,7/27/2016 18:13,18,13,7,30,2016
ci37641128,59,0.89,12,9.53,0.05766,"24km ESE of Ridgecrest, CA",35.5331667,-117.4345,California,27,1.47E+12,7/27/2016 18:20,18,20,7,7,2016
nc72667156,242,2.5,96,19.98,0.1677,"36km SSW of Ferndale, California",40.2971667,-124.5011667,California,27,1.47E+12,7/27/2016 19:22,19,22,7,24,2016
ci37641144,58,1.82,51,-0.82,0.1042,"5km NNW of Boron, CA",35.038,-117.6803333,California,27,1.47E+12,7/27/2016 19:32,19,32,7,21,2016
ci37641160,80,0.97,14,-0.5,0.02757,"13km SSE of Home Gardens, CA",33.7748333,-117.4486667,California,27,1.47E+12,7/27/2016 19:52,19,52,7,40,2016
ci37641168,67,0.34,2,2.04,0.009406,"16km E of Coso Junction, CA",36.0303333,-117.775,California,27,1.47E+12,7/27/2016 19:59,19,59,7,55,2016
nc72667176,65,0.93,13,1.5,0.01162,"4km WNW of Cobb, California",38.8311653,-122.7736664,California,27,1.47E+12,7/27/2016 20:02,20,2,7,44,2016
nc72667181,167,1.88,54,13.44,0.188,"10km WNW of Big Pine, California",37.2006667,-118.4,California,27,1.47E+12,7/27/2016 20:03,20,3,7,5,2016
ci37641176,27,1.64,41,9.84,0.08017,"23km ESE of Anza, CA",33.449,-116.462,California,27,1.47E+12,7/27/2016 20:05,20,5,7,18,2016
ci37143356,92,0.65,6,2.03,0.05133,"6km ENE of Coso Junction, CA",36.0583333,-117.879,California,27,1.47E+12,7/27/2016 20:26,20,26,7,21,2016
ci37641200,110,0.62,6,4.35,0.09109,"5km NW of Banning, CA",33.9611667,-116.9105,California,27,1.47E+12,7/27/2016 20:35,20,35,7,31,2016
nc71104639,334,0.68,7,6.89,0.06007,"22km SW of Gustine, California",37.1026667,-121.154,California,27,1.47E+12,7/27/2016 20:40,20,40,7,6,2016
ci37641208,109,0.74,8,15.6,0.05845,"12km SSW of Idyllwild, CA",33.6505,-116.7821667,California,27,1.47E+12,7/27/2016 21:10,21,10,7,28,2016
nc72667201,113,0.23,1,2.17,0.008497,"6km NW of The Geysers, California",38.8168333,-122.817,California,27,1.47E+12,7/27/2016 21:11,21,11,7,49,2016
nc71104644,312,0.49,4,2.7,0.04464,"27km NE of Hollister, California",37.0341667,-121.1968333,California,27,1.47E+12,7/27/2016 21:34,21,34,7,3,2016
nc72667211,230,0.99,15,-0.12,0.05734,"11km SSE of Mammoth Lakes, California",37.555,-118.9075,California,27,1.47E+12,7/27/2016 21:58,21,58,7,29,2016
ci37641224,53,1.25,24,12.95,0.07064,"7km SSE of Loma Linda, CA",33.9906667,-117.2443333,California,27,1.47E+12,7/27/2016 21:58,21,58,7,46,2016
ci37641232,147,0.71,8,16.36,0.04424,"8km SE of Idyllwild, CA",33.6855,-116.6713333,California,27,1.47E+12,7/27/2016 22:02,22,2,7,19,2016
ci37641240,49,1.74,47,9.34,0.009231,"20km SSW of La Quinta, CA",33.5145,-116.4226667,California,27,1.47E+12,7/27/2016 22:19,22,19,7,29,2016
nc72667221,116,0.58,5,1.34,0.008377,"2km E of The Geysers, California",38.7796669,-122.7241669,California,27,1.47E+12,7/27/2016 22:24,22,24,7,28,2016
nc72667246,291,0.57,5,3.65,0.1008,"16km S of Mammoth Lakes, California",37.5061667,-119.0055,California,27,1.47E+12,7/27/2016 22:52,22,52,7,46,2016
ci37641256,153,0.42,3,10.66,0.03859,"15km ESE of Anza, CA",33.5196667,-116.5213333,California,27,1.47E+12,7/27/2016 23:01,23,1,7,51,2016
ci37641264,41,1.13,20,3.92,0.1495,"24km N of California City, CA",35.3395,-118.006,California,27,1.47E+12,7/27/2016 23:39,23,39,7,44,2016
nc71104649,313,0.5,4,2.98,0.04592,"27km NE of Hollister, California",37.033,-121.1961667,California,27,1.47E+12,7/27/2016 23:40,23,40,7,54,2016
ci37641272,78,0.65,6,11.46,0.04485,"15km ESE of Anza, CA",33.5131667,-116.522,California,27,1.47E+12,7/27/2016 23:43,23,43,7,1,2016
nc72667256,92,0.91,13,2.58,0.006233,"3km WNW of The Geysers, California",38.7965012,-122.7946701,California,27,1.47E+12,7/27/2016 23:43,23,43,7,9,2016
ci37641280,70,0.93,13,4.75,0.01824,"3km W of Borrego Springs, CA",33.2523333,-116.4063333,California,27,1.47E+12,7/27/2016 23:44,23,44,7,1,2016
nc72667261,136,0.94,14,3.15,0.008763,"4km WNW of The Geysers, California",38.7944984,-122.7990036,California,27,1.47E+12,7/27/2016 23:44,23,44,7,29,2016
nc72667266,74,0.92,13,1.47,0.009427,"4km W of Cobb, California",38.8226662,-122.7796631,California,27,1.47E+12,7/27/2016 23:57,23,57,7,50,2016
nc72667276,60,0.35,2,4.43,0.02393,"3km ESE of Mammoth Lakes, California",37.6411667,-118.9305,California,28,1.47E+12,7/28/2016 00:16,0,16,7,38,2016
ci37641296,109,0.84,11,0.08,0.08505,"20km ENE of Thermal, CA",33.7345,-115.9526667,California,28,1.47E+12,7/28/2016 00:26,0,26,7,6,2016
nc72667296,116,1.13,20,7.23,0.05115,"25km NE of Soledad, California",36.5923333,-121.1303333,California,28,1.47E+12,7/28/2016 01:00,1,0,7,54,2016
nc72667306,54,1.18,21,6.88,0.04253,"14km S of Lake Nacimiento, California",35.5948333,-120.8835,California,28,1.47E+12,7/28/2016 01:17,1,17,7,55,2016
nc72667311,122,1.2,22,1.25,0.1319,"18km S of Mammoth Lakes, California",37.4793333,-118.9851667,California,28,1.47E+12,7/28/2016 01:27,1,27,7,18,2016
nc72667316,101,1.85,53,0.56,0.169,"30km SSW of Chester, California",40.0425,-121.3488333,California,28,1.47E+12,7/28/2016 01:45,1,45,7,1,2016
ci37641392,26,2.05,65,10.82,0.0473,"14km ESE of Anza, CA",33.5101667,-116.5275,California,28,1.47E+12,7/28/2016 01:46,1,46,7,29,2016
ci37641400,131,0.35,2,10.91,0.04202,"15km ESE of Anza, CA",33.5173333,-116.5158333,California,28,1.47E+12,7/28/2016 01:52,1,52,7,21,2016
ci37641408,79,1.16,21,9.71,0.154,"23km ESE of Julian, CA",33.038,-116.3626667,California,28,1.47E+12,7/28/2016 01:56,1,56,7,31,2016
ci37641432,35,1.23,23,9.64,0.1314,"6km NW of Aguanga, CA",33.4871667,-116.9063333,California,28,1.47E+12,7/28/2016 02:09,2,9,7,23,2016
nc72667336,81,1.02,16,2.09,0.01182,"5km W of Cobb, California",38.8190002,-122.7898331,California,28,1.47E+12,7/28/2016 02:12,2,12,7,31,2016
nc72667341,40,1.36,28,3.22,0.009996,"5km W of Cobb, California",38.819,-122.7911667,California,28,1.47E+12,7/28/2016 02:22,2,22,7,13,2016
nc72667361,74,0.87,12,1.59,0.006523,"9km WNW of Cobb, California",38.8400002,-122.8273315,California,28,1.47E+12,7/28/2016 03:05,3,5,7,32,2016
nc72667366,130,0.47,3,2.76,0.01078,"11km ESE of Mammoth Lakes, California",37.6208333,-118.8428333,California,28,1.47E+12,7/28/2016 03:09,3,9,7,45,2016
ci37641448,98,0.7,8,1.41,0.001856,"16km NE of Little Lake, CA",36.026,-117.7673333,California,28,1.47E+12,7/28/2016 03:14,3,14,7,58,2016
nc72667391,99,0.25,1,6.98,0.01436,"8km ESE of Mammoth Lakes, California",37.6216667,-118.8856667,California,28,1.47E+12,7/28/2016 04:14,4,14,7,54,2016
ci37641472,96,0.35,2,12.37,0.03986,"3km NNE of Murrieta Hot Springs, CA",33.5853333,-117.151,California,28,1.47E+12,7/28/2016 04:38,4,38,7,23,2016
ci37641480,234,0.52,4,2.75,0.09068,"4km WSW of Little Lake, CA",35.9258333,-117.9498333,California,28,1.47E+12,7/28/2016 05:05,5,5,7,12,2016
nc72667421,239,0.61,6,2.95,0.1319,"22km SSE of Mammoth Lakes, California",37.4613333,-118.8668333,California,28,1.47E+12,7/28/2016 05:33,5,33,7,22,2016
nc72667426,317,0.84,11,13.55,0.1172,"21km SE of Mammoth Lakes, California",37.5115,-118.8035,California,28,1.47E+12,7/28/2016 05:48,5,48,7,39,2016
ci37641504,79,1.23,23,15.8,0.09388,"15km NE of Ojai, CA",34.5281667,-119.1096667,California,28,1.47E+12,7/28/2016 06:21,6,21,7,34,2016
nc72667451,124,1.02,16,10.13,0.04183,"25km SE of Mammoth Lakes, California",37.4853333,-118.7741667,California,28,1.47E+12,7/28/2016 06:35,6,35,7,21,2016
ci37641512,62,0.83,11,16.06,0.09131,"4km SE of Loma Linda, CA",34.0271667,-117.2266667,California,28,1.47E+12,7/28/2016 06:50,6,50,7,16,2016
ci37641520,54,0.92,13,16.51,0.06774,"9km SW of Idyllwild, CA",33.6875,-116.7903333,California,28,1.47E+12,7/28/2016 06:58,6,58,7,4,2016
nc72667456,43,1.38,29,1.56,0.005541,"2km E of The Geysers, California",38.7765,-122.723,California,28,1.47E+12,7/28/2016 07:00,7,0,7,28,2016
nc72667461,85,0.88,12,2.14,0.01262,"2km NW of The Geysers, California",38.7943344,-122.7718353,California,28,1.47E+12,7/28/2016 07:24,7,24,7,43,2016
nc72667471,166,1.06,17,-0.2,0.02182,"4km SE of The Geysers, California",38.7518349,-122.7226639,California,28,1.47E+12,7/28/2016 07:26,7,26,7,18,2016
ci37641528,73,0.68,7,17.48,0.1065,"6km NE of Cabazon, CA",33.9483333,-116.7331667,California,28,1.47E+12,7/28/2016 07:58,7,58,7,31,2016
nc72667526,52,1.31,26,2.35,0.01984,"1km N of The Geysers, California",38.793,-122.7588333,California,28,1.47E+12,7/28/2016 08:43,8,43,7,27,2016
nc72667536,208,0.5,4,1.44,0.02843,"6km SSE of Mammoth Lakes, California",37.5921667,-118.9408333,California,28,1.47E+12,7/28/2016 09:35,9,35,7,16,2016
nc72667541,106,0.73,8,0.04,0.03569,"7km SSE of Mammoth Lakes, California",37.5816667,-118.9388333,California,28,1.47E+12,7/28/2016 09:47,9,47,7,41,2016
ci37641560,129,0.88,12,9.68,0.05048,"10km WNW of Morongo Valley, CA",34.0753333,-116.6896667,California,28,1.47E+12,7/28/2016 10:00,10,0,7,21,2016
nc72667551,46,1.26,24,8.42,0.06886,"15km NE of San Simeon, California",35.7323333,-121.0626667,California,28,1.47E+12,7/28/2016 10:20,10,20,7,27,2016
nc72667566,84,2.25,78,4.81,0.01689,"13km SE of Mammoth Lakes, California",37.5785,-118.8446667,California,28,1.47E+12,7/28/2016 10:28,10,28,7,14,2016
ci37641632,79,0.93,13,1.87,0.07168,"16km NNE of Thousand Palms, CA",33.9481667,-116.323,California,28,1.47E+12,7/28/2016 11:10,11,10,7,39,2016
nc72667581,71,1.91,56,3.04,0.01056,"6km NW of The Geysers, California",38.8131667,-122.8168333,California,28,1.47E+12,7/28/2016 11:20,11,20,7,8,2016
nc72667586,120,0.88,12,2.6,0.007699,"6km NW of The Geysers, California",38.8103333,-122.8195038,California,28,1.47E+12,7/28/2016 11:21,11,21,7,39,2016
ci37641664,94,0.3,1,14.59,0.03991,"12km ESE of Anza, CA",33.5206667,-116.5496667,California,28,1.47E+12,7/28/2016 11:31,11,31,7,6,2016
uw61172677,159,1.38,29,9.33,0.07053,"21km NE of Montague, California",41.8516667,-122.3303333,California,28,1.47E+12,7/28/2016 11:31,11,31,7,39,2016
ci37641672,65,1.25,24,2.17,0.06844,"16km E of Desert Hot Springs, CA",33.962,-116.3305,California,28,1.47E+12,7/28/2016 11:33,11,33,7,31,2016
nc72667591,43,1.19,22,1.66,0.009621,"4km W of Cobb, California",38.8225,-122.7768333,California,28,1.47E+12,7/28/2016 11:51,11,51,7,4,2016
ci37641680,81,1.15,20,1.77,0.07248,"16km NNE of Thousand Palms, CA",33.953,-116.3228333,California,28,1.47E+12,7/28/2016 11:55,11,55,7,23,2016
ci37641688,84,0.55,5,3.27,0.04609,"4km E of Banning, CA",33.9323333,-116.8348333,California,28,1.47E+12,7/28/2016 11:59,11,59,7,32,2016
ci37641704,78,0.79,10,1.99,0.06929,"15km NNE of Thousand Palms, CA",33.9461667,-116.3256667,California,28,1.47E+12,7/28/2016 12:25,12,25,7,50,2016
ci37641712,78,0.78,9,2.16,0.06966,"15km NNE of Thousand Palms, CA",33.9471667,-116.3253333,California,28,1.47E+12,7/28/2016 12:27,12,27,7,51,2016
ci37641720,59,1.49,34,10.59,0.03931,"8km NNE of Santa Clarita, CA",34.4761667,-118.4605,California,28,1.47E+12,7/28/2016 12:33,12,33,7,6,2016
nc72667606,109,0.77,9,8.56,0.1179,"25km SE of Mammoth Lakes, California",37.4766667,-118.7876667,California,28,1.47E+12,7/28/2016 12:43,12,43,7,55,2016
nc72667616,99,0.56,5,1.81,0.005894,"7km NW of The Geysers, California",38.8143349,-122.8263321,California,28,1.47E+12,7/28/2016 12:59,12,59,7,46,2016
ci37641768,64,1.16,21,1.68,0.07091,"16km NNE of Thousand Palms, CA",33.9486667,-116.324,California,28,1.47E+12,7/28/2016 13:01,13,1,7,29,2016
ci37641776,92,1.89,55,26.12,0.2885,"6km SSW of Wasco, CA",35.5403333,-119.3643333,California,28,1.47E+12,7/28/2016 13:16,13,16,7,50,2016
ci37641832,73,0.96,14,10.76,0.0994,"24km NE of Pine Valley, CA",32.9715,-116.351,California,28,1.47E+12,7/28/2016 14:00,14,0,7,45,2016
ci37641848,77,0.82,10,17.07,0.07563,"3km W of Yucaipa, CA",34.0326667,-117.0773333,California,28,1.47E+12,7/28/2016 14:03,14,3,7,5,2016
ci37641856,30,1.71,45,5.56,0.02162,"3km WSW of Borrego Springs, CA",33.2478333,-116.4083333,California,28,1.47E+12,7/28/2016 14:11,14,11,7,59,2016
nc72667646,141,0.27,1,1.51,0.01001,"4km SSE of Cobb, California",38.786,-122.6968333,California,28,1.47E+12,7/28/2016 14:23,14,23,7,11,2016
ci37641864,138,0.92,13,2.19,0.07979,"20km ENE of Thermal, CA",33.7285,-115.9456667,California,28,1.47E+12,7/28/2016 14:28,14,28,7,50,2016
ci37641888,99,1.43,31,-0.97,0.05611,"14km W of Mojave, CA",35.0458333,-118.3286667,California,28,1.47E+12,7/28/2016 14:44,14,44,7,13,2016
ci37641896,56,0.93,13,-0.49,0.0422,"4km NW of Nuevo, CA",33.8261667,-117.1776667,California,28,1.47E+12,7/28/2016 15:04,15,4,7,15,2016
nc72667656,156,0.27,1,2.73,0.009474,"7km NW of The Geysers, California",38.8216667,-122.822,California,28,1.47E+12,7/28/2016 15:17,15,17,7,2,2016
nc72667661,29,1.95,58,5.75,0.03214,"3km S of San Juan Bautista, California",36.81,-121.5371667,California,28,1.47E+12,7/28/2016 15:48,15,48,7,59,2016
nc72667666,110,1.15,20,5.72,0.02298,"7km NE of San Simeon, California",35.6818333,-121.1255,California,28,1.47E+12,7/28/2016 16:00,16,0,7,51,2016
nc72667671,107,3.22,164,6.15,0.02379,"7km NE of San Simeon, California",35.6823333,-121.1245,California,28,1.47E+12,7/28/2016 16:13,16,13,7,20,2016
nc72667676,75,0.34,2,1.54,0.01326,"0km ESE of The Geysers, California",38.7726667,-122.747,California,28,1.47E+12,7/28/2016 16:15,16,15,7,52,2016
nc72667681,116,0.78,9,6.08,0.01734,"6km NE of San Simeon, California",35.6806667,-121.1325,California,28,1.47E+12,7/28/2016 16:17,16,17,7,5,2016
nc72667686,111,1.2,22,6.05,0.02203,"7km NE of San Simeon, California",35.6816667,-121.1266667,California,28,1.47E+12,7/28/2016 16:21,16,21,7,39,2016
nc72667691,110,1.64,41,5.98,0.02367,"7km NE of San Simeon, California",35.6815,-121.1246667,California,28,1.47E+12,7/28/2016 16:24,16,24,7,55,2016
nc72667696,33,1.57,38,6.18,0.02916,"6km ENE of East Foothills, California",37.3986667,-121.7516667,California,28,1.47E+12,7/28/2016 16:35,16,35,7,6,2016
nc72667711,93,0.26,1,3.3,0.006401,"6km NW of The Geysers, California",38.8181667,-122.8053333,California,28,1.47E+12,7/28/2016 17:01,17,1,7,44,2016
nc72667716,110,0.78,9,5.6,0.02108,"7km NE of San Simeon, California",35.682,-121.1278333,California,28,1.47E+12,7/28/2016 17:01,17,1,7,45,2016
ci37642032,116,0.6,6,2.97,0.06717,"15km N of Borrego Springs, CA",33.3928333,-116.3825,California,28,1.47E+12,7/28/2016 17:26,17,26,7,35,2016
ci37642048,38,1.16,21,7.82,0.03292,"4km NE of Palomar Observatory, CA",33.3796667,-116.8385,California,28,1.47E+12,7/28/2016 17:35,17,35,7,50,2016
nc72667746,87,1.2,22,5.25,0.03146,"12km SE of Mammoth Lakes, California",37.5761667,-118.8646667,California,28,1.47E+12,7/28/2016 18:05,18,5,7,21,2016
nc72667761,126,0.88,12,2.75,0.01018,"6km WNW of The Geysers, California",38.8071671,-122.81633,California,28,1.47E+12,7/28/2016 18:37,18,37,7,4,2016
ci37642072,141,2.75,116,5.87,0.3834,"43km WSW of Carlsbad, CA",33.001,-117.7703333,California,28,1.47E+12,7/28/2016 18:47,18,47,7,44,2016
ci37642080,111,0.91,13,11.18,0.06958,"0km NE of Lakeland Village, CA",33.639,-117.3435,California,28,1.47E+12,7/28/2016 18:59,18,59,7,8,2016
nc72667771,110,0.79,10,6.22,0.02285,"7km NE of San Simeon, California",35.6815,-121.1256667,California,28,1.47E+12,7/28/2016 19:19,19,19,7,27,2016
ci37143524,77,0.91,13,1.44,0.07049,"15km NNE of Thousand Palms, CA",33.9425,-116.324,California,28,1.47E+12,7/28/2016 19:23,19,23,7,27,2016
ci37642096,79,1.07,18,1.62,0.07055,"16km NNE of Thousand Palms, CA",33.9478333,-116.3243333,California,28,1.47E+12,7/28/2016 19:23,19,23,7,39,2016
nc72667776,121,1.56,37,4.58,0.09862,"22km SSE of Mammoth Lakes, California",37.4701667,-118.8436667,California,28,1.47E+12,7/28/2016 19:29,19,29,7,26,2016
ci37642104,95,0.79,10,9.73,0.09233,"20km NNW of Borrego Springs, CA",33.4308333,-116.4273333,California,28,1.47E+12,7/28/2016 19:29,19,29,7,34,2016
nc72667781,260,0.12,0,-0.69,0.0382,"10km SE of Mammoth Lakes, California",37.5771667,-118.8956667,California,28,1.47E+12,7/28/2016 19:33,19,33,7,8,2016
nc72667786,229,0.53,4,5.23,0.03176,"13km SE of Mammoth Lakes, California",37.5703333,-118.8605,California,28,1.47E+12,7/28/2016 19:35,19,35,7,49,2016
ci37642120,53,1.06,17,7.63,0.05852,"10km ENE of Desert Hot Springs, CA",33.9993333,-116.4101667,California,28,1.47E+12,7/28/2016 19:43,19,43,7,3,2016
ci37642128,41,0.99,15,4.87,0.03908,"3km SW of Anza, CA",33.5381667,-116.6946667,California,28,1.47E+12,7/28/2016 19:46,19,46,7,37,2016
nc72667806,71,1.15,20,1.87,0.005896,"4km WNW of Cobb, California",38.8356667,-122.7734985,California,28,1.47E+12,7/28/2016 20:00,20,0,7,55,2016
nc72667826,39,2.16,72,4.92,0.04169,"14km SSE of Ridgemark, California",36.6876667,-121.318,California,28,1.47E+12,7/28/2016 20:20,20,20,7,8,2016
ci37642176,77,1.09,18,17.53,0.08066,"2km ESE of Cabazon, CA",33.9111667,-116.77,California,28,1.47E+12,7/28/2016 20:33,20,33,7,31,2016
nn00553740,202.46,0.7,8,7.5,0.222,"4km ESE of Big Pine, California",37.1425,-118.2447,California,28,1.47E+12,7/28/2016 20:38,20,38,7,42,2016
nc72667886,240,0.13,0,4.81,0.02542,"12km SE of Mammoth Lakes, California",37.5796667,-118.8583333,California,28,1.47E+12,7/28/2016 21:17,21,17,7,58,2016
nc72667881,96,1.55,37,6.39,0.2045,"27km SW of West Bishop, California",37.1621667,-118.6596667,California,28,1.47E+12,7/28/2016 21:19,21,19,7,5,2016
nc72667891,141,1.58,38,8.65,0.205,"27km SW of West Bishop, California",37.1605,-118.6521667,California,28,1.47E+12,7/28/2016 21:22,21,22,7,57,2016
ci37642216,36,1.63,41,10.28,0.08738,"15km WNW of Morongo Valley, CA",34.0941667,-116.73,California,28,1.47E+12,7/28/2016 21:24,21,24,7,56,2016
nc72667901,119,0.45,3,3.72,0.03854,"24km WSW of Coalinga, California",36.0303333,-120.592,California,28,1.47E+12,7/28/2016 21:29,21,29,7,56,2016
ci37642232,79,1.36,28,5.16,0.05715,"6km SE of Bombay Beach, CA",33.3098333,-115.6878333,California,28,1.47E+12,7/28/2016 21:38,21,38,7,28,2016
ci37642264,91,0.91,13,6.7,0.07019,"9km N of Coso Junction, CA",36.1241667,-117.9411667,California,28,1.47E+12,7/28/2016 22:54,22,54,7,29,2016
ci37642272,78,0.9,12,1.65,0.07297,"16km NNE of Thousand Palms, CA",33.9508333,-116.3218333,California,28,1.47E+12,7/28/2016 22:59,22,59,7,4,2016
nc72667966,56,0.78,9,0.14,0.01023,"4km W of Cobb, California",38.8235016,-122.7805023,California,28,1.47E+12,7/28/2016 23:36,23,36,7,47,2016
nc72667976,171,0.98,15,8.61,0.04184,"3km SW of Broadmoor, California",37.6681667,-122.5103333,California,28,1.47E+12,7/28/2016 23:53,23,53,7,24,2016
ci37642280,64,0.9,12,1.73,0.07034,"16km NNE of Thousand Palms, CA",33.9485,-116.3246667,California,29,1.47E+12,7/29/2016 00:43,0,43,7,48,2016
ci37642344,47,1.34,29,8.97,0.01823,"1km NNE of View Park-Windsor Hills, CA",34.003,-118.3456667,California,29,1.47E+12,7/29/2016 01:24,1,24,7,54,2016
ci37642352,79,0.86,11,2.13,0.07005,"16km NNE of Thousand Palms, CA",33.9495,-116.3251667,California,29,1.47E+12,7/29/2016 01:37,1,37,7,56,2016
ci37642368,186,0.83,11,12.4,0.08674,"10km N of Borrego Springs, CA",33.3421667,-116.3626667,California,29,1.47E+12,7/29/2016 02:30,2,30,7,36,2016
ci37642376,61,0.6,6,1.52,0.003184,"16km NE of Little Lake, CA",36.0225,-117.7673333,California,29,1.47E+12,7/29/2016 02:34,2,34,7,14,2016
ci37642384,48,1.64,41,1.09,0.03708,"12km E of Coso Junction, CA",36.0251667,-117.811,California,29,1.47E+12,7/29/2016 03:27,3,27,7,36,2016
ci37642400,94,1.06,17,1.61,0.08788,"39km E of Olancha, CA",36.2335,-117.5723333,California,29,1.47E+12,7/29/2016 03:41,3,41,7,48,2016
ci37642408,44,0.71,8,12.32,0.05843,"8km SW of Idyllwild, CA",33.6793333,-116.773,California,29,1.47E+12,7/29/2016 04:03,4,3,7,10,2016
nc72668026,99,1.29,26,3.46,0.03935,"9km NNW of Dixon Lane-Meadow Creek, California",37.4481667,-118.4723333,California,29,1.47E+12,7/29/2016 04:13,4,13,7,8,2016
ci37642416,38,0.87,12,1.86,0.07894,"20km ENE of Thermal, CA",33.7285,-115.9443333,California,29,1.47E+12,7/29/2016 04:15,4,15,7,23,2016
ci37642424,69,1,15,8.47,0.03847,"5km W of Desert Hot Springs, CA",33.97,-116.5561667,California,29,1.47E+12,7/29/2016 04:29,4,29,7,44,2016
nn00553699,117.15,0.3,1,11.6,0.043,"48km NNE of Mammoth Lakes, California",38.0431,-118.7324,California,29,1.47E+12,7/29/2016 04:32,4,32,7,28,2016
ci37642432,114,0.73,8,6.65,0.1045,"9km E of Ridgecrest, CA",35.6251667,-117.5813333,California,29,1.47E+12,7/29/2016 04:52,4,52,7,11,2016
nc72668316,314,0.52,4,8.42,0.101,"13km ESE of Shingletown, California",40.437,-121.749,California,29,1.47E+12,7/29/2016 05:23,5,23,7,51,2016
nc72668046,335,1.27,25,0.5,0.2689,"43km ESE of Bridgeport, California",38.0175,-118.8406667,California,29,1.47E+12,7/29/2016 05:52,5,52,7,7,2016
nc72668051,122,0.2,1,2.69,0.002215,"6km ESE of Mammoth Lakes, California",37.656,-118.9081667,California,29,1.47E+12,7/29/2016 06:00,6,0,7,28,2016
nc72668056,320,1.26,24,16.84,0.184,"25km ESE of Yosemite Valley, California",37.6886667,-119.3005,California,29,1.47E+12,7/29/2016 06:13,6,13,7,52,2016
ci37642440,108,0.6,6,13.29,0.04929,"22km ESE of Anza, CA",33.4808333,-116.4556667,California,29,1.47E+12,7/29/2016 07:51,7,51,7,3,2016
nc72668096,100,0.73,8,8.79,0.05372,"25km NE of Soledad, California",36.575,-121.1061667,California,29,1.47E+12,7/29/2016 07:55,7,55,7,11,2016
nn00553752,126.26,0.9,12,12.3,0.071,"15km E of East Quincy, California",39.9133,-120.7184,California,29,1.47E+12,7/29/2016 08:15,8,15,7,32,2016
ci37642456,79,1.25,24,3.11,0.02129,"13km WSW of Niland, CA",33.192,-115.6456667,California,29,1.47E+12,7/29/2016 08:17,8,17,7,2,2016
ci37642464,72,1.8,50,2.89,0.1964,"38km ESE of Johannesburg, CA",35.207,-117.2721667,California,29,1.47E+12,7/29/2016 08:27,8,27,7,58,2016
nc72668106,125,0.73,8,1.45,0.008099,"9km NW of The Geysers, California",38.8240013,-122.8453369,California,29,1.47E+12,7/29/2016 08:33,8,33,7,14,2016
ci37642472,70,1.67,43,3.15,0.01895,"13km WSW of Niland, CA",33.1928333,-115.642,California,29,1.47E+12,7/29/2016 08:34,8,34,7,53,2016
nc72668111,83,1.24,24,7.34,0.05617,"25km NE of Soledad, California",36.5716667,-121.1088333,California,29,1.47E+12,7/29/2016 08:37,8,37,7,56,2016
nc72668126,92,0.57,5,2.31,0.006047,"9km W of Cobb, California",38.8376656,-122.8278351,California,29,1.47E+12,7/29/2016 08:54,8,54,7,29,2016
nc72668131,48,0.5,4,2.4,0.01045,"3km W of Cobb, California",38.8205,-122.7658333,California,29,1.47E+12,7/29/2016 09:04,9,4,7,12,2016
ci37642496,69,2.54,100,3.01,0.0218,"13km WSW of Niland, CA",33.1893333,-115.6475,California,29,1.47E+12,7/29/2016 09:07,9,7,7,58,2016
ci37642520,75,1.38,29,3.33,0.01812,"13km WSW of Niland, CA",33.1881667,-115.6433333,California,29,1.47E+12,7/29/2016 09:13,9,13,7,11,2016
nc72668136,84,0.79,10,1.52,0.02132,"23km SW of Coalinga, California",35.9996667,-120.56,California,29,1.47E+12,7/29/2016 09:15,9,15,7,49,2016
nn00553754,199.84,0.3,1,0,0.066,"52km E of Big Pine, California",37.1846,-117.7023,California,29,1.47E+12,7/29/2016 09:22,9,22,7,58,2016
nc72668141,45,1.45,32,1.31,0.01193,"7km W of Cobb, California",38.8351667,-122.8075,California,29,1.47E+12,7/29/2016 09:46,9,46,7,9,2016
nc72668146,77,0.56,5,0.99,0.0131,"7km WNW of Cobb, California",38.8364983,-122.809166,California,29,1.47E+12,7/29/2016 09:47,9,47,7,35,2016
ci37642560,27,1.6,39,-1.35,0.0667,"10km NNW of Big Bear Lake, CA",34.3268333,-116.9418333,California,29,1.47E+12,7/29/2016 09:49,9,49,7,11,2016
nc72668151,132,0.91,13,0.34,0.003675,"1km E of The Geysers, California",38.7803345,-122.7338333,California,29,1.47E+12,7/29/2016 10:20,10,20,7,48,2016
ci37642584,69,1.47,33,3.81,0.02079,"13km WSW of Niland, CA",33.192,-115.645,California,29,1.47E+12,7/29/2016 10:21,10,21,7,24,2016
nn00553711,154.26,0.9,12,5.4,0.039,"58km ENE of Big Pine, California",37.2715,-117.6404,California,29,1.47E+12,7/29/2016 10:44,10,44,7,42,2016
ci37642608,90,1.52,36,3.63,0.0209,"13km WSW of Niland, CA",33.1928333,-115.6446667,California,29,1.47E+12,7/29/2016 10:53,10,53,7,44,2016
nc72668166,86,1.24,24,0.06,0.002369,"6km W of Middletown, California",38.7501667,-122.6881667,California,29,1.47E+12,7/29/2016 11:31,11,31,7,9,2016
nn00553757,192.2,0.3,1,4.7,0.043,"53km E of Big Pine, California",37.2087,-117.6909,California,29,1.47E+12,7/29/2016 11:49,11,49,7,11,2016
nc72668176,48,0.68,7,9.4,0.01689,"27km NE of San Miguel, California",35.8936667,-120.4433333,California,29,1.47E+12,7/29/2016 12:06,12,6,7,26,2016
nn00553759,233.44,0.1,0,8.9,0.073,"60km ENE of Searles Valley, California",35.9721,-116.78,California,29,1.47E+12,7/29/2016 12:06,12,6,7,56,2016
ci37642664,47,0.88,12,7.31,0.03235,"3km NW of Lake Henshaw, CA",33.2613333,-116.7828333,California,29,1.47E+12,7/29/2016 12:10,12,10,7,38,2016
nc72668181,38,1.59,39,0.53,0.01314,"8km WNW of Cobb, California",38.839,-122.8186667,California,29,1.47E+12,7/29/2016 12:15,12,15,7,17,2016
nc72668186,114,0.01,0,0.11,0.01255,"8km WNW of Cobb, California",38.8398333,-122.8195,California,29,1.47E+12,7/29/2016 12:15,12,15,7,35,2016
nc72668191,45,1.66,42,1.42,0.01075,"4km SE of The Geysers, California",38.7508333,-122.7243333,California,29,1.47E+12,7/29/2016 12:25,12,25,7,50,2016
ci37642680,33,1.35,28,11.45,0.07749,"17km SSE of Big Bear City, CA",34.1118333,-116.7928333,California,29,1.47E+12,7/29/2016 12:28,12,28,7,23,2016
nc72668196,89,0.34,2,1.23,0.01303,"4km SE of The Geysers, California",38.7486667,-122.7271667,California,29,1.47E+12,7/29/2016 12:29,12,29,7,19,2016
nc72668206,83,0.81,10,1.87,0.003358,"9km WNW of The Geysers, California",38.8251648,-122.8538361,California,29,1.47E+12,7/29/2016 12:33,12,33,7,35,2016
nn00553761,149.06,0.6,6,8.9,0.093,"56km NE of Mammoth Lakes, California",37.9615,-118.4609,California,29,1.47E+12,7/29/2016 12:38,12,38,7,28,2016
nc72668211,80,0.87,12,-0.41,0.1055,"1km NE of Quarry near Lake Nacimiento, CA",35.6778333,-120.9888333,California,29,1.47E+12,7/29/2016 13:26,13,26,7,24,2016
nc72668216,127,1.29,26,-0.32,0.01332,"11km E of Quarry near Portola Valley, CA",37.322,-122.1001667,California,29,1.47E+12,7/29/2016 13:29,13,29,7,8,2016
ci37642736,79,1.47,33,3.47,0.0193,"13km WSW of Niland, CA",33.1898333,-115.6441667,California,29,1.47E+12,7/29/2016 13:29,13,29,7,11,2016
nc72668226,84,0.51,4,2.88,0.007798,"6km WNW of The Geysers, California",38.8065,-122.8196667,California,29,1.47E+12,7/29/2016 13:35,13,35,7,12,2016
nc72668221,62,1.95,58,3.94,0.002898,"18km WNW of West Bishop, California",37.4411667,-118.6391667,California,29,1.47E+12,7/29/2016 13:35,13,35,7,18,2016
nn00553737,254.01,0.3,1,6.3,0.093,"62km ENE of Searles Valley, California",35.9633,-116.7543,California,29,1.47E+12,7/29/2016 13:35,13,35,7,38,2016
nc72668246,196,0.51,4,1.61,0.02007,"5km SSE of Mammoth Lakes, California",37.5998333,-118.9468333,California,29,1.47E+12,7/29/2016 14:12,14,12,7,52,2016
ci37642800,38,0.96,14,-0.3,0.05085,"4km WNW of Grand Terrace, CA",34.0525,-117.3543333,California,29,1.47E+12,7/29/2016 14:14,14,14,7,0,2016
nc72668251,118,1.45,32,-0.11,0.02262,"1km SE of Quarry near Aromas, CA",36.8951667,-121.6168333,California,29,1.47E+12,7/29/2016 14:18,14,18,7,41,2016
ci37642808,70,1.43,31,3.11,0.01983,"13km WSW of Niland, CA",33.1885,-115.6453333,California,29,1.47E+12,7/29/2016 14:21,14,21,7,22,2016
ci37642832,50,1.58,38,2.59,0.05658,"21km ESE of Little Lake, CA",35.8968333,-117.6806667,California,29,1.47E+12,7/29/2016 14:34,14,34,7,59,2016
ci37642840,69,1.87,54,3.18,0.01985,"13km WSW of Niland, CA",33.1921667,-115.6436667,California,29,1.47E+12,7/29/2016 14:39,14,39,7,16,2016
ci37642856,97,0.68,7,13.43,0.06463,"9km NNW of Anza, CA",33.6361667,-116.6948333,California,29,1.47E+12,7/29/2016 14:42,14,42,7,53,2016
nc72668266,86,0.44,3,3.5,0.009074,"6km WNW of The Geysers, California",38.8021667,-122.8213333,California,29,1.47E+12,7/29/2016 14:49,14,49,7,31,2016
ci37642880,69,1.85,53,3.48,0.01975,"13km WSW of Niland, CA",33.1876667,-115.6455,California,29,1.47E+12,7/29/2016 14:54,14,54,7,48,2016
ci37642888,71,1.96,59,3.3,0.0152,"13km WSW of Niland, CA",33.1861667,-115.6403333,California,29,1.47E+12,7/29/2016 14:56,14,56,7,9,2016
ci37143700,108,1.71,45,2.97,0.02494,"13km WSW of Niland, CA",33.1981667,-115.6463333,California,29,1.47E+12,7/29/2016 14:56,14,56,7,25,2016
ci37143692,104,2.33,84,2.98,0.01883,"13km WSW of Niland, CA",33.1928333,-115.6418333,California,29,1.47E+12,7/29/2016 14:56,14,56,7,37,2016
ci37642896,70,2.39,88,3.15,0.01814,"13km WSW of Niland, CA",33.1908333,-115.6421667,California,29,1.47E+12,7/29/2016 14:58,14,58,7,36,2016
ci37642912,112,1.17,21,3.74,0.007903,"12km WSW of Niland, CA",33.1885,-115.6295,California,29,1.47E+12,7/29/2016 15:06,15,6,7,6,2016
nc72668276,47,0.28,1,1.18,0.01733,"1km N of The Geysers, California",38.7908333,-122.7566667,California,29,1.47E+12,7/29/2016 15:08,15,8,7,26,2016
nn00553748,86.73,0.5,4,13.5,0.082,"15km WNW of Portola, California",39.8573,-120.6358,California,29,1.47E+12,7/29/2016 15:20,15,20,7,12,2016
nc72668286,288,0.25,1,0.47,0.0741,"14km SSE of Mammoth Lakes, California",37.5318333,-118.887,California,29,1.47E+12,7/29/2016 15:22,15,22,7,24,2016
ci37642976,68,1.58,38,3.94,0.01746,"13km WSW of Niland, CA",33.1856667,-115.6431667,California,29,1.47E+12,7/29/2016 15:30,15,30,7,56,2016
ci37642992,83,1.63,41,3.07,0.01719,"13km WSW of Niland, CA",33.1906667,-115.641,California,29,1.47E+12,7/29/2016 15:32,15,32,7,58,2016
ci37643024,81,1.25,24,3.19,0.01667,"12km WSW of Niland, CA",33.1916667,-115.6396667,California,29,1.47E+12,7/29/2016 15:47,15,47,7,12,2016
ci37643032,70,2,62,3.45,0.01867,"13km WSW of Niland, CA",33.1895,-115.6435,California,29,1.47E+12,7/29/2016 15:52,15,52,7,49,2016
ci37643040,163,0.47,3,8.47,0.0322,"20km E of Anza, CA",33.5255,-116.4641667,California,29,1.47E+12,7/29/2016 15:55,15,55,7,9,2016
ci37643072,90,1.22,23,3.44,0.01823,"12km WSW of Niland, CA",33.1928333,-115.641,California,29,1.47E+12,7/29/2016 16:12,16,12,7,57,2016
ci37643088,71,1.45,32,3.41,0.01673,"13km WSW of Niland, CA",33.188,-115.6416667,California,29,1.47E+12,7/29/2016 16:21,16,21,7,17,2016
nc72668301,75,0.54,4,2.36,0.00704,"7km NW of The Geysers, California",38.814,-122.823,California,29,1.47E+12,7/29/2016 16:38,16,38,7,36,2016
nc72668306,77,1.44,32,1.15,0.09377,"16km W of Redwood Valley, California",39.26,-123.3995,California,29,1.47E+12,7/29/2016 16:40,16,40,7,26,2016
nc72668311,119,0.72,8,6.44,0.06644,"25km SE of Mammoth Lakes, California",37.4606667,-118.798,California,29,1.47E+12,7/29/2016 17:05,17,5,7,54,2016
ci37643128,93,0.24,1,12.91,0.03868,"11km ESE of Anza, CA",33.5168333,-116.564,California,29,1.47E+12,7/29/2016 17:12,17,12,7,0,2016
ci37643184,70,1.79,49,3.62,0.01974,"13km WSW of Niland, CA",33.191,-115.6441667,California,29,1.47E+12,7/29/2016 17:38,17,38,7,58,2016
ci37643192,68,1.51,35,3.36,0.02181,"13km WSW of Niland, CA",33.1883333,-115.6478333,California,29,1.47E+12,7/29/2016 17:57,17,57,7,48,2016
ci37143684,152,1.25,24,3.89,0.02317,"13km WSW of Niland, CA",33.1965,-115.6451667,California,29,1.47E+12,7/29/2016 17:58,17,58,7,25,2016
nc72670945,248,1.35,28,1.24,0.02698,"43km SSW of Tulelake, California",41.582,-121.6228333,California,29,1.47E+12,7/29/2016 18:13,18,13,7,53,2016
nc72668376,72,1,15,3.7,0.01638,"2km NNW of The Geysers, California",38.7996674,-122.7686691,California,29,1.47E+12,7/29/2016 18:47,18,47,7,58,2016
nc72668401,60,1.1,19,1.34,0.002784,"7km WNW of The Geysers, California",38.8115005,-122.8280029,California,29,1.47E+12,7/29/2016 19:16,19,16,7,42,2016
nc72668411,70,0.35,2,2.11,0.00714,"9km NW of The Geysers, California",38.8233333,-122.8441667,California,29,1.47E+12,7/29/2016 19:24,19,24,7,32,2016
nc72668431,143,0.56,5,1.65,0.008894,"9km NW of The Geysers, California",38.8255005,-122.8460007,California,29,1.47E+12,7/29/2016 19:58,19,58,7,15,2016
nc72668456,87,0.74,8,1.59,0.001887,"9km WNW of Cobb, California",38.8396683,-122.8335037,California,29,1.47E+12,7/29/2016 20:07,20,7,7,58,2016
nc72668451,56,1.93,57,2,0.003787,"9km WNW of Cobb, California",38.839,-122.8306667,California,29,1.47E+12,7/29/2016 20:08,20,8,7,26,2016
nc72668461,108,0.81,10,1.23,0.003013,"9km WNW of Cobb, California",38.8390007,-122.831665,California,29,1.47E+12,7/29/2016 20:09,20,9,7,3,2016
nc72668466,51,1.61,40,1.63,0.005083,"9km WNW of Cobb, California",38.839,-122.829,California,29,1.47E+12,7/29/2016 20:10,20,10,7,56,2016
nc72668471,131,0.48,4,5.33,0.01592,"5km E of Mammoth Lakes, California",37.6406667,-118.911,California,29,1.47E+12,7/29/2016 20:13,20,13,7,6,2016
nc72668481,56,0.36,2,5.83,0.008125,"5km E of Mammoth Lakes, California",37.6396667,-118.9051667,California,29,1.47E+12,7/29/2016 20:16,20,16,7,16,2016
nc72668486,83,1.49,34,0.44,0.1533,"28km E of Ridgemark, California",36.799,-121.046,California,29,1.47E+12,7/29/2016 20:17,20,17,7,50,2016
ci37643232,82,0.56,5,15.27,0.03426,"7km S of Idyllwild, CA",33.6798333,-116.731,California,29,1.47E+12,7/29/2016 20:26,20,26,7,46,2016
ci37143724,261,0.41,3,8.69,0.1034,"21km ESE of Anza, CA",33.4671667,-116.4701667,California,29,1.47E+12,7/29/2016 20:54,20,54,7,30,2016
ci37643248,130,0.57,5,17.91,0.002987,"3km S of Idyllwild, CA",33.7091667,-116.7168333,California,29,1.47E+12,7/29/2016 20:54,20,54,7,37,2016
ci37643256,70,1.02,16,9.87,0.111,"4km WNW of Banning, CA",33.9388333,-116.9218333,California,29,1.47E+12,7/29/2016 21:09,21,9,7,57,2016
ci37643264,69,1.42,31,3.82,0.02064,"13km WSW of Niland, CA",33.191,-115.6453333,California,29,1.47E+12,7/29/2016 21:18,21,18,7,23,2016
ci37143708,70,1.67,43,3.42,0.0228,"13km WSW of Niland, CA",33.1885,-115.649,California,29,1.47E+12,7/29/2016 21:18,21,18,7,50,2016
nc72668526,190,0.75,9,0.59,0.02254,"5km SSW of Mammoth Lakes, California",37.5991667,-118.9986667,California,29,1.47E+12,7/29/2016 21:25,21,25,7,25,2016
nc72668531,61,0.35,2,4.92,0.01336,"5km ESE of Mammoth Lakes, California",37.6383333,-118.9118333,California,29,1.47E+12,7/29/2016 21:39,21,39,7,55,2016
nc72668536,208,0.33,2,1.94,0.02993,"6km SSW of Mammoth Lakes, California",37.5903333,-118.9963333,California,29,1.47E+12,7/29/2016 21:41,21,41,7,49,2016
nc72668541,129,1.18,21,1.44,0.0741,"14km SSE of Mammoth Lakes, California",37.5318333,-118.887,California,29,1.47E+12,7/29/2016 22:04,22,4,7,25,2016
nc72668551,108,0.88,12,-0.52,0.01159,"2km NW of The Geysers, California",38.7891655,-122.7740021,California,29,1.47E+12,7/29/2016 22:08,22,8,7,55,2016
nc72668571,47,1.78,49,1.96,0.05302,"26km NE of Hollister, California",37.0268333,-121.1916667,California,29,1.47E+12,7/29/2016 22:35,22,35,7,5,2016
ci37643272,57,1.51,35,4.58,0.02009,"13km NE of Trabuco Canyon, CA",33.7495,-117.4971667,California,29,1.47E+12,7/29/2016 22:39,22,39,7,9,2016
nc72668581,92,0.54,4,7.27,0.01403,"12km ESE of Mammoth Lakes, California",37.5936667,-118.8461667,California,29,1.47E+12,7/29/2016 22:45,22,45,7,32,2016
nc72668586,54,2.57,102,6.17,0.05368,"18km N of Laytonville, California",39.8576667,-123.5091667,California,29,1.47E+12,7/29/2016 22:49,22,49,7,3,2016
nc72668621,119,1.19,22,1.07,0.05451,"26km NE of Hollister, California",37.0255,-121.1908333,California,29,1.47E+12,7/29/2016 23:43,23,43,7,4,2016
nc71104794,317,0.68,7,2.24,0.04801,"27km NE of Hollister, California",37.033,-121.1905,California,29,1.47E+12,7/29/2016 23:45,23,45,7,44,2016
nn00553795,131.48,1,15,9.4,0.127,"18km ESE of Janesville, California",40.2318,-120.3283,California,30,1.47E+12,7/30/2016 00:21,0,21,7,13,2016
nc72669955,173,0.25,1,6.85,0.02853,"22km WNW of Chester, California",40.4115,-121.455,California,30,1.47E+12,7/30/2016 00:23,0,23,7,40,2016
ci37643280,36,1.6,39,3.58,0.01795,"3km W of Borrego Springs, CA",33.2515,-116.4091667,California,30,1.47E+12,7/30/2016 00:28,0,28,7,58,2016
nc72668656,196,0.55,5,7.31,0.03143,"22km WNW of Chester, California",40.4033333,-121.4633333,California,30,1.47E+12,7/30/2016 01:14,1,14,7,48,2016
nc72668661,195,0.49,4,7.08,0.03322,"22km WNW of Chester, California",40.4046667,-121.4653333,California,30,1.47E+12,7/30/2016 01:15,1,15,7,57,2016
nc72668666,116,0.87,12,6.93,0.03224,"22km WNW of Chester, California",40.4103333,-121.4613333,California,30,1.47E+12,7/30/2016 01:16,1,16,7,37,2016
nc72668651,101,1.49,34,7.22,0.03759,"22km WNW of Chester, California",40.3955,-121.4723333,California,30,1.47E+12,7/30/2016 01:17,1,17,7,11,2016
nc72668676,115,1.4,30,7.15,0.03002,"22km WNW of Chester, California",40.408,-121.4595,California,30,1.47E+12,7/30/2016 01:25,1,25,7,9,2016
nc72668681,64,0.22,1,1.36,0.01049,"6km W of Cobb, California",38.828,-122.7921667,California,30,1.47E+12,7/30/2016 01:25,1,25,7,24,2016
nc72668696,190,0.39,2,7.01,0.03293,"22km WNW of Chester, California",40.4063333,-121.4643333,California,30,1.47E+12,7/30/2016 01:28,1,28,7,38,2016
nc72668691,105,1.98,60,7.28,0.03018,"22km WNW of Chester, California",40.4043333,-121.4613333,California,30,1.47E+12,7/30/2016 01:30,1,30,7,31,2016
nc72668701,202,0.65,6,8.4,0.02941,"22km WNW of Chester, California",40.4003333,-121.4613333,California,30,1.47E+12,7/30/2016 01:31,1,31,7,56,2016
nc72668706,191,0.54,4,7.18,0.03449,"22km WNW of Chester, California",40.4066667,-121.4663333,California,30,1.47E+12,7/30/2016 01:38,1,38,7,22,2016
nc71104444,179,0.3,1,7.56,0.03079,"22km WNW of Chester, California",40.4101667,-121.4593333,California,30,1.47E+12,7/30/2016 01:38,1,38,7,37,2016
nc72668711,191,0.54,4,7.17,0.03274,"22km WNW of Chester, California",40.4056667,-121.4643333,California,30,1.47E+12,7/30/2016 01:41,1,41,7,52,2016
nc72668716,157,0.75,9,6.97,0.03067,"22km NW of Chester, California",40.421,-121.4475,California,30,1.47E+12,7/30/2016 01:42,1,42,7,31,2016
nc72668721,202,0.44,3,8.1,0.02672,"21km WNW of Chester, California",40.4,-121.4578333,California,30,1.47E+12,7/30/2016 01:43,1,43,7,50,2016
nc72668726,194,1.25,24,6.87,0.0324,"22km WNW of Chester, California",40.4048333,-121.4641667,California,30,1.47E+12,7/30/2016 01:44,1,44,7,42,2016
ci37643304,52,1.28,25,1.24,0.158,"15km NNW of Piru, CA",34.5495,-118.8323333,California,30,1.47E+12,7/30/2016 01:53,1,53,7,0,2016
ci37643312,63,1.55,37,12.67,0.07061,"5km NNW of Oak Park, CA",34.2186667,-118.7828333,California,30,1.47E+12,7/30/2016 02:01,2,1,7,5,2016
nc72668736,112,2.24,77,8.32,0.02716,"22km WNW of Chester, California",40.4066667,-121.4561667,California,30,1.47E+12,7/30/2016 02:25,2,25,7,23,2016
nc72668741,196,1.26,24,6.95,0.03155,"22km WNW of Chester, California",40.4033333,-121.4635,California,30,1.47E+12,7/30/2016 02:28,2,28,7,46,2016
nc72668751,93,2.22,76,5.62,0.03913,"23km WNW of Chester, California",40.4013333,-121.474,California,30,1.47E+12,7/30/2016 02:34,2,34,7,0,2016
nc72668756,100,2.23,77,7.32,0.02993,"22km WNW of Chester, California",40.4013333,-121.4618333,California,30,1.47E+12,7/30/2016 02:34,2,34,7,38,2016
nc72668766,195,0.81,10,6.92,0.03375,"22km WNW of Chester, California",40.4048333,-121.466,California,30,1.47E+12,7/30/2016 02:36,2,36,7,0,2016
nc72668761,115,1.4,30,7.57,0.02698,"22km WNW of Chester, California",40.4058333,-121.4563333,California,30,1.47E+12,7/30/2016 02:36,2,36,7,23,2016
nc72668776,198,0.27,1,8.39,0.0262,"21km WNW of Chester, California",40.4015,-121.4568333,California,30,1.47E+12,7/30/2016 02:38,2,38,7,17,2016
nc71104494,285,0.19,1,4.95,0.0551,"19km NW of Chester, California",40.4393333,-121.3775,California,30,1.47E+12,7/30/2016 02:39,2,39,7,58,2016
nc72668771,104,1.82,51,7.32,0.03335,"22km WNW of Chester, California",40.4056667,-121.4651667,California,30,1.47E+12,7/30/2016 02:40,2,40,7,6,2016
nc71104489,117,1.38,29,8.62,0.02418,"21km WNW of Chester, California",40.405,-121.4528333,California,30,1.47E+12,7/30/2016 02:40,2,40,7,30,2016
nc72669965,171,0.58,5,7.3,0.02296,"21km NW of Chester, California",40.4165,-121.4381667,California,30,1.47E+12,7/30/2016 02:40,2,40,7,50,2016
nc71104659,195,0.34,2,7.39,0.0331,"22km WNW of Chester, California",40.4046667,-121.4651667,California,30,1.47E+12,7/30/2016 02:41,2,41,7,8,2016
nc71104664,166,0.43,3,6.23,0.02829,"21km NW of Chester, California",40.4205,-121.443,California,30,1.47E+12,7/30/2016 02:41,2,41,7,13,2016
nc72668786,191,0.62,6,8.82,0.02716,"22km WNW of Chester, California",40.4045,-121.4571667,California,30,1.47E+12,7/30/2016 02:42,2,42,7,24,2016
nc72668781,86,2.38,87,7.74,0.0315,"22km WNW of Chester, California",40.406,-121.4625,California,30,1.47E+12,7/30/2016 02:44,2,44,7,48,2016
nc72668791,191,0.54,4,8.64,0.02614,"21km WNW of Chester, California",40.4043333,-121.4558333,California,30,1.47E+12,7/30/2016 02:46,2,46,7,37,2016
nc72668796,188,0.68,7,8.61,0.02676,"22km WNW of Chester, California",40.4051667,-121.4563333,California,30,1.47E+12,7/30/2016 02:47,2,47,7,39,2016
nc72668801,167,0.6,6,6.93,0.02646,"22km WNW of Chester, California",40.4123333,-121.451,California,30,1.47E+12,7/30/2016 02:48,2,48,7,0,2016
nc71104449,189,0.39,2,7.2,0.03379,"22km WNW of Chester, California",40.4071667,-121.4651667,California,30,1.47E+12,7/30/2016 02:48,2,48,7,22,2016
nc72668816,195,0.6,6,8.47,0.02587,"21km WNW of Chester, California",40.4023333,-121.4561667,California,30,1.47E+12,7/30/2016 02:58,2,58,7,9,2016
nc72668821,194,1.26,24,7.17,0.03129,"22km WNW of Chester, California",40.4043333,-121.4628333,California,30,1.47E+12,7/30/2016 02:59,2,59,7,47,2016
nc72668826,184,0.59,5,7.53,0.03281,"22km WNW of Chester, California",40.4091667,-121.4628333,California,30,1.47E+12,7/30/2016 03:00,3,0,7,43,2016
nc72668831,196,0.83,11,5.58,0.03968,"23km WNW of Chester, California",40.4058333,-121.4736667,California,30,1.47E+12,7/30/2016 03:06,3,6,7,33,2016
nc72668836,186,0.36,2,7.32,0.03245,"22km WNW of Chester, California",40.4081667,-121.4628333,California,30,1.47E+12,7/30/2016 03:13,3,13,7,56,2016
nc71104454,176,0.26,1,7.05,0.02963,"22km WNW of Chester, California",40.4108333,-121.4571667,California,30,1.47E+12,7/30/2016 03:14,3,14,7,26,2016
ci37643320,42,0.62,6,4.45,0.04016,"3km SW of Anza, CA",33.538,-116.6971667,California,30,1.47E+12,7/30/2016 03:17,3,17,7,36,2016
nc72668841,187,0.4,2,7.35,0.03388,"22km WNW of Chester, California",40.4081667,-121.4648333,California,30,1.47E+12,7/30/2016 03:21,3,21,7,53,2016
ci37643336,40,0.82,10,5.24,0.04064,"3km SW of Anza, CA",33.5368333,-116.6956667,California,30,1.47E+12,7/30/2016 03:24,3,24,7,11,2016
nc72668851,182,0.43,3,9.26,0.02599,"21km WNW of Chester, California",40.407,-121.4543333,California,30,1.47E+12,7/30/2016 03:31,3,31,7,6,2016
nc72668861,192,1.11,19,7.03,0.03286,"22km WNW of Chester, California",40.4056667,-121.4645,California,30,1.47E+12,7/30/2016 03:39,3,39,7,15,2016
nc72668866,124,0.7,8,-0.67,0.07515,"14km SSE of Mammoth Lakes, California",37.5313333,-118.8883333,California,30,1.47E+12,7/30/2016 03:49,3,49,7,20,2016
nc72668871,190,0.35,2,7,0.03177,"22km WNW of Chester, California",40.4065,-121.4626667,California,30,1.47E+12,7/30/2016 03:57,3,57,7,36,2016
nc72668876,214,0.9,12,8.09,0.02553,"21km WNW of Chester, California",40.395,-121.4565,California,30,1.47E+12,7/30/2016 04:11,4,11,7,43,2016
ci37643360,115,0.33,2,7.43,0.09657,"3km NE of Banning, CA",33.9441667,-116.8475,California,30,1.47E+12,7/30/2016 04:15,4,15,7,27,2016
nc72668881,184,0.6,6,6.9,0.0308,"22km WNW of Chester, California",40.4085,-121.4603333,California,30,1.47E+12,7/30/2016 04:18,4,18,7,14,2016
nc72668891,205,0.93,13,8.14,0.02953,"22km WNW of Chester, California",40.399,-121.4616667,California,30,1.47E+12,7/30/2016 04:30,4,30,7,9,2016
ci37643384,50,1.67,43,20.37,0.0926,"2km WNW of Lamont, CA",35.2698333,-118.9393333,California,30,1.47E+12,7/30/2016 04:59,4,59,7,33,2016
nc72668906,134,0.26,1,6.26,0.0158,"8km E of Mammoth Lakes, California",37.6361667,-118.8798333,California,30,1.47E+12,7/30/2016 05:00,5,0,7,5,2016
nc72668901,73,1.37,29,5.86,0.01147,"7km E of Mammoth Lakes, California",37.6365,-118.8863333,California,30,1.47E+12,7/30/2016 05:01,5,1,7,15,2016
nc72668911,130,0.79,10,1.77,0.005067,"6km WNW of The Geysers, California",38.8066673,-122.8233337,California,30,1.47E+12,7/30/2016 05:18,5,18,7,28,2016
nc72668916,64,1.29,26,2.09,0.003391,"6km NW of The Geysers, California",38.82,-122.81,California,30,1.47E+12,7/30/2016 05:21,5,21,7,34,2016
nc72668921,181,0.9,12,-0.73,0.01291,"10km NW of The Geysers, California",38.831501,-122.856163,California,30,1.47E+12,7/30/2016 05:34,5,34,7,52,2016
nc72668926,95,0.53,4,0.24,0.009949,"4km W of Cobb, California",38.8231659,-122.779335,California,30,1.47E+12,7/30/2016 05:41,5,41,7,13,2016
nc72668936,204,0.54,4,6.49,0.03552,"22km WNW of Chester, California",40.4006667,-121.4693333,California,30,1.47E+12,7/30/2016 05:56,5,56,7,38,2016
ci37643400,75,0.88,12,17.08,0.1178,"8km SW of Pine Valley, CA",32.7683333,-116.5793333,California,30,1.47E+12,7/30/2016 06:12,6,12,7,56,2016
nn00553892,199.97,0.2,1,14,0.17,"7km ENE of Big Pine, California",37.1994,-118.2198,California,30,1.47E+12,7/30/2016 06:26,6,26,7,21,2016
nc72668941,261,0.41,3,1.11,0.07618,"15km SSE of Mammoth Lakes, California",37.529,-118.8866667,California,30,1.47E+12,7/30/2016 06:33,6,33,7,52,2016
ci37643408,123,0.57,5,8.2,0.1224,"11km NE of Borrego Springs, CA",33.329,-116.2901667,California,30,1.47E+12,7/30/2016 06:37,6,37,7,22,2016
ci37643416,110,1.19,22,2.6,0.02251,"13km WSW of Niland, CA",33.1921667,-115.6471667,California,30,1.47E+12,7/30/2016 07:23,7,23,7,43,2016
ci37643424,91,0.73,8,5.21,0.02446,"2km WSW of Borrego Springs, CA",33.2493333,-116.3985,California,30,1.47E+12,7/30/2016 07:42,7,42,7,36,2016
nc72668981,185,0.35,2,6.92,0.03174,"22km WNW of Chester, California",40.4085,-121.4616667,California,30,1.47E+12,7/30/2016 08:03,8,3,7,46,2016
ci37643440,48,1.7,44,11.28,0.06599,"2km S of Chino Hills, CA",33.978,-117.7558333,California,30,1.47E+12,7/30/2016 08:35,8,35,7,50,2016
nc72668991,55,2.68,145,9.44,0.01039,"3km NNW of Benicia, California",38.0786667,-122.1698333,California,30,1.47E+12,7/30/2016 08:53,8,53,7,10,2016
ci37643448,64,0.62,6,13.66,0.1048,"4km ENE of Colton, CA",34.0925,-117.272,California,30,1.47E+12,7/30/2016 09:15,9,15,7,30,2016
nc72668996,84,1.25,24,1.1,0.02402,"7km SSE of Mammoth Lakes, California",37.593,-118.9336667,California,30,1.47E+12,7/30/2016 09:19,9,19,7,31,2016
ci37643480,94,0.38,2,12.27,0.0574,"8km NNW of Anza, CA",33.6285,-116.6953333,California,30,1.47E+12,7/30/2016 10:24,10,24,7,54,2016
nc72669016,121,0.89,12,1.74,0.01587,"6km W of Cobb, California",38.8238335,-122.7965012,California,30,1.47E+12,7/30/2016 10:25,10,25,7,13,2016
nc72669031,61,1.31,26,2.19,0.001206,"9km NW of The Geysers, California",38.8395,-122.8365,California,30,1.47E+12,7/30/2016 10:39,10,39,7,54,2016
ci37643512,108,0.67,7,11.83,0.05283,"8km N of Anza, CA",33.6258333,-116.6641667,California,30,1.47E+12,7/30/2016 10:47,10,47,7,15,2016
nc72669036,125,1.4,30,4.71,0.09963,"24km SSE of Mammoth Lakes, California",37.4578333,-118.8411667,California,30,1.47E+12,7/30/2016 11:03,11,3,7,22,2016
nc72669046,86,0.68,7,5.65,0.02841,"12km SE of Mammoth Lakes, California",37.5795,-118.8623333,California,30,1.47E+12,7/30/2016 11:28,11,28,7,46,2016
nc72669051,74,1.65,42,8.1,0.0597,"26km ENE of King City, California",36.2666667,-120.8403333,California,30,1.47E+12,7/30/2016 11:33,11,33,7,1,2016
nc72669056,110,0.53,4,4.33,0.04157,"23km WNW of Chester, California",40.4075,-121.4756667,California,30,1.47E+12,7/30/2016 11:46,11,46,7,46,2016
nc72669076,93,0.34,2,4.18,0.01947,"26km SSW of Coalinga, California",35.9226667,-120.4706667,California,30,1.47E+12,7/30/2016 12:16,12,16,7,24,2016
ci37643576,107,0.44,3,2.62,0.09787,"4km WNW of Cabazon, CA",33.9381667,-116.8256667,California,30,1.47E+12,7/30/2016 12:18,12,18,7,40,2016
nc72669081,106,0.79,10,5.87,0.02153,"7km NE of San Simeon, California",35.6835,-121.1273333,California,30,1.47E+12,7/30/2016 12:37,12,37,7,13,2016
nc72669091,41,1.4,30,1.5,0.00571,"1km NE of The Geysers, California",38.7861667,-122.743,California,30,1.47E+12,7/30/2016 12:49,12,49,7,0,2016
nc72669096,44,1.24,24,1.65,0.005318,"1km NE of The Geysers, California",38.7858333,-122.7426667,California,30,1.47E+12,7/30/2016 12:54,12,54,7,1,2016
nc71104474,79,1.08,18,1.09,0.004907,"5km SE of The Geysers, California",38.7448333,-122.715,California,30,1.47E+12,7/30/2016 13:06,13,6,7,15,2016
nc72669111,18,3.37,181,1.57,0.005555,"5km SE of The Geysers, California",38.7451667,-122.7158333,California,30,1.47E+12,7/30/2016 13:11,13,11,7,23,2016
nc72669131,37,1.97,60,0.72,0.01093,"5km ESE of The Geysers, California",38.7538333,-122.7045,California,30,1.47E+12,7/30/2016 13:12,13,12,7,45,2016
nc72669126,40,2.02,63,0.82,0.01294,"4km ESE of The Geysers, California",38.7571667,-122.708,California,30,1.47E+12,7/30/2016 13:13,13,13,7,5,2016
nc72669136,152,0.79,10,5.39,0.01344,"3km ESE of The Geysers, California",38.7598343,-122.7183304,California,30,1.47E+12,7/30/2016 13:14,13,14,7,58,2016
nc72669141,69,1.02,16,1.15,0.007785,"5km ESE of The Geysers, California",38.7548333,-122.6995,California,30,1.47E+12,7/30/2016 13:15,13,15,7,49,2016
nc72669151,64,1.1,19,1.63,0.005849,"3km SE of The Geysers, California",38.7558333,-122.7235,California,30,1.47E+12,7/30/2016 13:18,13,18,7,13,2016
ci37643624,22,3.19,238,11.85,0.02971,"9km SE of Lake Henshaw, CA",33.196,-116.6825,California,30,1.47E+12,7/30/2016 13:22,13,22,7,28,2016
nc72669171,64,0.88,12,1.75,0.008171,"4km SE of The Geysers, California",38.7471667,-122.718,California,30,1.47E+12,7/30/2016 13:26,13,26,7,4,2016
nc72669181,111,0.35,2,5.15,0.02223,"4km ESE of Mammoth Lakes, California",37.6406667,-118.9273333,California,30,1.47E+12,7/30/2016 13:38,13,38,7,9,2016
nc72669186,73,1.54,36,-0.58,0.1642,"10km SE of Boonville, California",38.947,-123.2743333,California,30,1.47E+12,7/30/2016 13:41,13,41,7,55,2016
nc72669191,58,1.56,37,1.45,0.01113,"4km SE of The Geysers, California",38.7506667,-122.718,California,30,1.47E+12,7/30/2016 13:47,13,47,7,36,2016
ci37643656,65,1.89,55,14.08,0.06523,"5km NNW of Oak Park, CA",34.2195,-118.7893333,California,30,1.47E+12,7/30/2016 14:02,14,2,7,1,2016
nc71104799,239,0.72,8,3.67,0.08447,"18km SSW of Gustine, California",37.1038333,-121.0883333,California,30,1.47E+12,7/30/2016 14:42,14,42,7,24,2016
nc72669216,128,1.06,17,0.81,0.007621,"4km E of The Geysers, California",38.7753334,-122.7026672,California,30,1.47E+12,7/30/2016 14:43,14,43,7,24,2016
ci37643672,87,0.7,8,8.04,0.06463,"16km ESE of Anza, CA",33.493,-116.5235,California,30,1.47E+12,7/30/2016 14:53,14,53,7,45,2016
nc72669236,116,0.97,14,1.64,0.008378,"6km SE of The Geysers, California",38.7426667,-122.6946667,California,30,1.47E+12,7/30/2016 15:23,15,23,7,27,2016
nc72669246,115,0.83,11,1.69,0.01419,"1km SE of The Geysers, California",38.7668343,-122.7423325,California,30,1.47E+12,7/30/2016 15:35,15,35,7,40,2016
ci37643704,43,0.85,11,7.78,0.05195,"5km ENE of Banning, CA",33.9461667,-116.833,California,30,1.47E+12,7/30/2016 15:45,15,45,7,32,2016
nc72669256,62,1.25,24,2.89,0.009474,"6km NW of The Geysers, California",38.8168333,-122.8188333,California,30,1.47E+12,7/30/2016 16:00,16,0,7,17,2016
nc72669266,160,0.15,0,1.12,0.01403,"4km ENE of Mammoth Lakes, California",37.658,-118.923,California,30,1.47E+12,7/30/2016 16:13,16,13,7,42,2016
nc72669271,62,0.23,1,0.83,0.01074,"0km SE of The Geysers, California",38.7753333,-122.7533333,California,30,1.47E+12,7/30/2016 16:26,16,26,7,17,2016
ci37643728,54,0.83,11,11.59,0.07723,"4km N of Fontana, CA",34.1358333,-117.4646667,California,30,1.47E+12,7/30/2016 16:33,16,33,7,37,2016
nc72669276,73,1.8,50,6.17,0.04817,"18km N of Laytonville, California",39.8535,-123.5035,California,30,1.47E+12,7/30/2016 16:35,16,35,7,13,2016
ci37643744,126,0.81,10,11.18,0.0729,"4km ENE of Borrego Springs, CA",33.2665,-116.3301667,California,30,1.47E+12,7/30/2016 17:11,17,11,7,7,2016
nc72669316,79,0.67,7,0.92,0.004347,"5km SE of The Geysers, California",38.7443333,-122.7146667,California,30,1.47E+12,7/30/2016 17:34,17,34,7,36,2016
nc72669361,59,1.45,32,5.47,0.04124,"39km NE of Redwood Valley, California",39.5248333,-122.8935,California,30,1.47E+12,7/30/2016 17:54,17,54,7,7,2016
nn00553919,170.08,0.4,2,6.5,0.092,"51km ENE of Big Pine, California",37.2967,-117.7297,California,30,1.47E+12,7/30/2016 17:58,17,58,7,15,2016
nc72669396,101,1.35,28,1.09,0.07395,"15km SSE of Mammoth Lakes, California",37.531,-118.8853333,California,30,1.47E+12,7/30/2016 18:27,18,27,7,31,2016
ci37643816,60,1.21,23,1.42,0.1524,"12km NW of Big Bear Lake, CA",34.309,-117.0126667,California,30,1.47E+12,7/30/2016 18:28,18,28,7,22,2016
ci37643824,62,0.87,12,5.85,0.1498,"12km NW of Big Bear Lake, CA",34.311,-117.0095,California,30,1.47E+12,7/30/2016 18:29,18,29,7,27,2016
nc72669406,87,0.68,7,2.35,0.006925,"6km NW of The Geysers, California",38.8123333,-122.8215,California,30,1.47E+12,7/30/2016 18:34,18,34,7,45,2016
nc72669411,295,0.34,2,4.62,0.03708,"15km SE of Mammoth Lakes, California",37.5555,-118.8463333,California,30,1.47E+12,7/30/2016 18:35,18,35,7,23,2016
nc72669426,277,0.23,1,-0.42,0.06138,"13km SE of Mammoth Lakes, California",37.5453333,-118.8821667,California,30,1.47E+12,7/30/2016 18:48,18,48,7,21,2016
ci37643856,50,1.22,23,2.48,0.07512,"10km WNW of Big Bear Lake, CA",34.2931667,-117.0035,California,30,1.47E+12,7/30/2016 18:49,18,49,7,15,2016
nc72670600,105,0.87,12,-1.45,0.06829,"20km NE of Weed, California",41.558,-122.2201667,California,30,1.47E+12,7/30/2016 18:57,18,57,7,2,2016
nc71104904,86,0.54,4,5.76,0.04787,"9km N of Hollister, California",36.9365,-121.4183333,California,30,1.47E+12,7/30/2016 19:22,19,22,7,48,2016
ci37643920,52,1.58,38,8.86,0.0775,"23km ESE of Anza, CA",33.4518333,-116.4618333,California,30,1.47E+12,7/30/2016 19:59,19,59,7,3,2016
ci37643944,80,1.9,56,3.05,0.07757,"24km WNW of Desert Center, CA",33.7846667,-115.6488333,California,30,1.47E+12,7/30/2016 20:23,20,23,7,8,2016
ci37643952,20,1.89,55,12.42,0.05285,"10km NNW of Anza, CA",33.6311667,-116.7193333,California,30,1.47E+12,7/30/2016 20:42,20,42,7,7,2016
ci37643968,68,1.08,18,6.56,0.06874,"9km WNW of Big Bear Lake, CA",34.2901667,-116.9966667,California,30,1.47E+12,7/30/2016 20:51,20,51,7,19,2016
nc72669561,73,1.83,52,2.23,0.003626,"6km WNW of The Geysers, California",38.8068333,-122.8253333,California,30,1.47E+12,7/30/2016 20:57,20,57,7,0,2016
ci37643984,108,0.83,11,11.24,0.09896,"16km WSW of Ocotillo Wells, CA",33.099,-116.2928333,California,30,1.47E+12,7/30/2016 21:14,21,14,7,19,2016
ci37643992,113,0.8,10,1.08,0.07976,"24km S of Twentynine Palms, CA",33.9245,-116.0276667,California,30,1.47E+12,7/30/2016 21:35,21,35,7,53,2016
nc72669601,184,0.33,2,7.71,0.03264,"22km WNW of Chester, California",40.4093333,-121.4625,California,30,1.47E+12,7/30/2016 21:46,21,46,7,34,2016
nc72669606,156,0.23,1,6.17,0.02927,"22km NW of Chester, California",40.4175,-121.45,California,30,1.47E+12,7/30/2016 21:48,21,48,7,25,2016
ci37644008,47,2.67,111,7.04,0.1262,"8km W of Grapevine, CA",34.9318333,-119.017,California,30,1.47E+12,7/30/2016 21:50,21,50,7,26,2016
nc72669616,165,0.5,4,9.26,0.03717,"23km WNW of Chester, California",40.4191667,-121.4618333,California,30,1.47E+12,7/30/2016 21:54,21,54,7,19,2016
nc72669626,184,0.26,1,7.01,0.0327,"22km WNW of Chester, California",40.4091667,-121.4626667,California,30,1.47E+12,7/30/2016 21:55,21,55,7,23,2016
nc71104464,183,0.42,3,7.55,0.03354,"22km WNW of Chester, California",40.4098333,-121.4635,California,30,1.47E+12,7/30/2016 21:55,21,55,7,39,2016
nc71104459,214,1.35,28,4.72,0.1219,"23km NW of San Simeon, California",35.7748333,-121.3976667,California,30,1.47E+12,7/30/2016 21:55,21,55,7,51,2016
nc72669631,107,1.24,24,6.84,0.03333,"22km WNW of Chester, California",40.4068333,-121.4646667,California,30,1.47E+12,7/30/2016 21:57,21,57,7,18,2016
nc72669621,51,0.26,1,6.16,0.0148,"24km SW of Coalinga, California",35.9685,-120.5256667,California,30,1.47E+12,7/30/2016 21:57,21,57,7,32,2016
nc72669636,212,0.42,3,7.48,0.0405,"23km WNW of Chester, California",40.3968333,-121.4761667,California,30,1.47E+12,7/30/2016 21:58,21,58,7,44,2016
nc71104674,179,0.4,2,7.48,0.0312,"22km WNW of Chester, California",40.4108333,-121.4595,California,30,1.47E+12,7/30/2016 21:59,21,59,7,16,2016
nc72669641,155,1.73,46,1.87,0.1414,"26km S of Mammoth Lakes, California",37.4133333,-119.0083333,California,30,1.47E+12,7/30/2016 22:04,22,4,7,38,2016
nc72669646,93,1.66,42,6.91,0.03802,"23km WNW of Chester, California",40.4031667,-121.4721667,California,30,1.47E+12,7/30/2016 22:12,22,12,7,5,2016
nc72670595,181,0.03,0,7.6,0.03312,"22km WNW of Chester, California",40.4105,-121.4625,California,30,1.47E+12,7/30/2016 22:13,22,13,7,13,2016
nc72669661,120,1.1,19,7.41,0.03269,"22km WNW of Chester, California",40.4123333,-121.4606667,California,30,1.47E+12,7/30/2016 22:16,22,16,7,8,2016
nc72669656,107,1.72,46,7.01,0.03927,"22km WNW of Chester, California",40.3918333,-121.4741667,California,30,1.47E+12,7/30/2016 22:18,22,18,7,18,2016
nc72669666,108,0.35,2,7.13,0.03478,"22km WNW of Chester, California",40.4055,-121.4671667,California,30,1.47E+12,7/30/2016 22:19,22,19,7,20,2016
ci37644016,141,0.56,5,18.29,0.04445,"7km SSW of Idyllwild, CA",33.6881667,-116.7598333,California,30,1.47E+12,7/30/2016 22:22,22,22,7,12,2016
nc71104804,247,0.84,11,-0.44,0.06316,"20km SW of Gustine, California",37.105,-121.134,California,30,1.47E+12,7/30/2016 22:26,22,26,7,23,2016
nc72669676,179,0.47,3,7.49,0.03381,"22km WNW of Chester, California",40.4118333,-121.4626667,California,30,1.47E+12,7/30/2016 22:32,22,32,7,2,2016
nc72669681,77,2.85,126,2.7,0.1408,"26km S of Mammoth Lakes, California",37.4128333,-119.009,California,30,1.47E+12,7/30/2016 22:39,22,39,7,9,2016
nc72669691,226,0.18,0,8.08,0.03821,"23km WNW of Chester, California",40.402,-121.4726667,California,30,1.47E+12,7/30/2016 22:57,22,57,7,6,2016
nc72669706,64,1.23,23,5.97,0.02358,"16km N of Morgan Hill, California",37.277,-121.654,California,30,1.47E+12,7/30/2016 23:21,23,21,7,32,2016
nc71104809,87,0.79,10,8.19,0.06242,"8km ENE of Gilroy, California",37.0401667,-121.4846667,California,30,1.47E+12,7/30/2016 23:31,23,31,7,8,2016
nc72669711,127,1.15,20,4.46,0.1006,"23km SSE of Mammoth Lakes, California",37.4593333,-118.843,California,31,1.47E+12,7/31/2016 00:02,0,2,7,21,2016
nc72669716,52,2.14,70,4.39,0.01088,"21km NE of Soledad, California",36.5815,-121.1793333,California,31,1.47E+12,7/31/2016 00:16,0,16,7,59,2016
ci37644056,76,0.49,4,12.02,0.08498,"4km NNW of Cabazon, CA",33.95,-116.8043333,California,31,1.47E+12,7/31/2016 00:35,0,35,7,22,2016
ci37644064,90,1.07,18,15.04,0.03094,"2km NE of Universal City, CA",34.1503333,-118.3395,California,31,1.47E+12,7/31/2016 00:42,0,42,7,15,2016
ci37644080,80,0.91,13,10.08,0.04471,"8km SSE of Chino, CA",33.9396667,-117.6675,California,31,1.47E+12,7/31/2016 01:08,1,8,7,42,2016
ci37644088,154,1.14,20,9.44,0.05456,"16km S of Lompoc, CA",34.4993333,-120.4876667,California,31,1.47E+12,7/31/2016 01:14,1,14,7,55,2016
nc72669771,86,1.64,41,11.34,0.04027,"6km WNW of West Bishop, California",37.3796667,-118.5251667,California,31,1.47E+12,7/31/2016 01:41,1,41,7,47,2016
ci37644104,117,0.5,4,11.06,0.04961,"7km NNE of Rancho Cucamonga, CA",34.1783333,-117.549,California,31,1.47E+12,7/31/2016 01:48,1,48,7,25,2016
nc72669776,64,1.29,26,8.01,0.04689,"9km E of Gilroy, California",36.9998333,-121.4578333,California,31,1.47E+12,7/31/2016 01:58,1,58,7,54,2016
nc72669781,125,0.54,4,1.34,0.0105,"6km NW of The Geysers, California",38.8138351,-122.817337,California,31,1.47E+12,7/31/2016 01:59,1,59,7,51,2016
nc72669786,158,0.73,8,3.38,0.104,"23km SSE of Mammoth Lakes, California",37.4603333,-118.8478333,California,31,1.47E+12,7/31/2016 02:04,2,4,7,18,2016
nc72669791,110,1.13,20,4.36,0.01239,"22km NE of Soledad, California",36.5835,-121.179,California,31,1.47E+12,7/31/2016 02:26,2,26,7,33,2016
ci37644112,66,0.43,3,13.7,0.03403,"9km N of Anza, CA",33.6366667,-116.6871667,California,31,1.47E+12,7/31/2016 02:43,2,43,7,6,2016
nc71104814,99,0.59,5,8.35,0.04049,"10km E of Gilroy, California",36.9945,-121.4516667,California,31,1.47E+12,7/31/2016 02:58,2,58,7,30,2016
nn00553969,199.19,0.3,1,4.4,0.269,"38km ESE of Big Pine, California",37.0401,-117.8803,California,31,1.47E+12,7/31/2016 03:00,3,0,7,8,2016
nc72669796,28,1.82,51,1.51,0.01531,"3km SE of The Geysers, California",38.7585,-122.7225,California,31,1.47E+12,7/31/2016 03:07,3,7,7,46,2016
nc72669806,91,0.39,2,1.66,0.01265,"4km ESE of The Geysers, California",38.7531667,-122.7085,California,31,1.47E+12,7/31/2016 03:14,3,14,7,15,2016
nc72669811,174,0.41,3,7.27,0.02968,"22km WNW of Chester, California",40.4118333,-121.4565,California,31,1.47E+12,7/31/2016 03:44,3,44,7,45,2016
ci37644120,55,1.85,53,10.76,0.03443,"7km ENE of Westmorland, CA",33.0665,-115.5583333,California,31,1.47E+12,7/31/2016 03:51,3,51,7,16,2016
ci37644128,45,2.02,63,10.77,0.01689,"4km ENE of Westmorland, CA",33.0551667,-115.583,California,31,1.47E+12,7/31/2016 03:53,3,53,7,48,2016
nc72669826,181,0.33,2,7.5,0.0312,"22km WNW of Chester, California",40.4095,-121.4603333,California,31,1.47E+12,7/31/2016 04:02,4,2,7,48,2016
nn00553976,202.09,0.4,2,0,0.26,"59km NE of Lone Pine, California",36.9773,-117.5856,California,31,1.47E+12,7/31/2016 04:15,4,15,7,43,2016
nc72669831,48,2.21,75,29.22,0.04355,"17km N of Redway, California",40.2741667,-123.8505,California,31,1.47E+12,7/31/2016 04:17,4,17,7,44,2016
nc72669836,56,1.47,33,9.44,0.2179,"7km ENE of Willits, California",39.4343333,-123.2776667,California,31,1.47E+12,7/31/2016 04:29,4,29,7,56,2016
nc72669841,179,0.37,2,7.61,0.03086,"22km WNW of Chester, California",40.4103333,-121.4593333,California,31,1.47E+12,7/31/2016 04:35,4,35,7,25,2016
nc72669846,61,2.19,75,6.25,0.02251,"9km NNE of East Foothills, California",37.4555,-121.7728333,California,31,1.47E+12,7/31/2016 05:02,5,2,7,15,2016
ci37644152,67,1.95,58,2.76,0.1331,"21km ESE of Bodfish, CA",35.4878333,-118.2921667,California,31,1.47E+12,7/31/2016 05:11,5,11,7,58,2016
ci37644160,31,1.18,21,8.62,0.04178,"14km WNW of Anza, CA",33.598,-116.8155,California,31,1.47E+12,7/31/2016 05:12,5,12,7,31,2016
ci37644168,131,0.59,5,8.67,0.0185,"17km WNW of Searles Valley, CA",35.8263333,-117.5788333,California,31,1.47E+12,7/31/2016 05:19,5,19,7,2,2016
ci37644184,50,1.14,20,8.18,0.01634,"1km NNW of View Park-Windsor Hills, CA",34.005,-118.3525,California,31,1.47E+12,7/31/2016 05:38,5,38,7,9,2016
ci37644192,51,1.04,17,8.33,0.08929,"12km S of Salton City, CA",33.1906667,-115.9808333,California,31,1.47E+12,7/31/2016 05:38,5,38,7,22,2016
nc72669866,78,0.92,13,2.99,0.01383,"2km NNW of The Geysers, California",38.7980003,-122.7713318,California,31,1.47E+12,7/31/2016 05:41,5,41,7,22,2016
nc72669876,79,0.89,12,0.76,0.01097,"0km NNE of The Geysers, California",38.7784996,-122.7558365,California,31,1.47E+12,7/31/2016 05:49,5,49,7,25,2016
ci37644200,90,0.22,1,8.35,0.03687,"14km WNW of Anza, CA",33.6035,-116.817,California,31,1.47E+12,7/31/2016 06:42,6,42,7,25,2016
ci37644208,113,0.33,2,8.96,0.05685,"14km ESE of Anza, CA",33.5005,-116.5311667,California,31,1.47E+12,7/31/2016 06:48,6,48,7,48,2016
ci37644216,95,1.16,21,6.19,0.03745,"8km N of Granada Hills, CA",34.3428333,-118.4885,California,31,1.47E+12,7/31/2016 07:06,7,6,7,41,2016
nc72669891,58,2.54,101,6.74,0.03439,"9km E of Yountville, California",38.4051667,-122.2561667,California,31,1.47E+12,7/31/2016 07:17,7,17,7,18,2016
ci37644224,43,0.84,11,5.74,0.1268,"12km SSE of Big Bear City, CA",34.1628333,-116.8076667,California,31,1.47E+12,7/31/2016 07:29,7,29,7,51,2016
nc72669916,136,1.38,29,11.53,0.04047,"6km WNW of West Bishop, California",37.3796667,-118.5248333,California,31,1.47E+12,7/31/2016 07:48,7,48,7,54,2016
ci37644256,77,0.64,6,14.33,0.03438,"7km NNE of Pala, CA",33.4231667,-117.0376667,California,31,1.47E+12,7/31/2016 07:59,7,59,7,21,2016
nc72669931,194,2.17,72,10.32,0.1659,"6km SW of Huron, California",36.1673333,-120.1643333,California,31,1.47E+12,7/31/2016 08:15,8,15,7,4,2016
nc72669936,84,0.29,1,1.49,0.01358,"6km WNW of Cobb, California",38.8348333,-122.7906667,California,31,1.47E+12,7/31/2016 08:27,8,27,7,46,2016
ci37644424,192,0.29,1,13.98,0.08022,"19km ESE of Anza, CA",33.4848333,-116.4898333,California,31,1.47E+12,7/31/2016 09:00,9,0,7,50,2016
ci37644432,64,0.16,0,2.85,0.02399,"4km NW of Anza, CA",33.5786667,-116.7133333,California,31,1.47E+12,7/31/2016 09:40,9,40,7,49,2016
ci37644440,80,0.6,6,14.15,0.1371,"9km E of Cabazon, CA",33.9065,-116.6936667,California,31,1.47E+12,7/31/2016 09:47,9,47,7,21,2016
nc72669961,133,0.56,5,8.63,0.09772,"16km NW of West Bishop, California",37.446,-118.6021667,California,31,1.47E+12,7/31/2016 10:07,10,7,7,35,2016
nc72669966,207,1.73,46,8.1,0.175,"18km W of Bonny Doon, California",37.0503333,-122.3556667,California,31,1.47E+12,7/31/2016 10:11,10,11,7,26,2016
ci37644464,158,0.4,2,12,0.0351,"15km ESE of Anza, CA",33.5235,-116.5201667,California,31,1.47E+12,7/31/2016 10:22,10,22,7,53,2016
nc72670006,109,0.8,10,6.2,0.01892,"6km NE of San Simeon, California",35.6828333,-121.1305,California,31,1.47E+12,7/31/2016 11:25,11,25,7,10,2016
nc72670016,92,0.53,4,2.43,0.0105,"6km NW of The Geysers, California",38.815,-122.8181667,California,31,1.47E+12,7/31/2016 11:32,11,32,7,25,2016
nc72670031,147,1.08,18,0.86,0.1347,"25km S of Mammoth Lakes, California",37.4256667,-119.0223333,California,31,1.47E+12,7/31/2016 11:43,11,43,7,42,2016
ci37644512,80,1.26,24,8.01,0.06315,"7km SE of Bombay Beach, CA",33.3075,-115.6803333,California,31,1.47E+12,7/31/2016 12:02,12,2,7,41,2016
ci37644504,31,2.61,105,3.28,0.0354,"16km SW of Westmorland, CA",32.953,-115.7588333,California,31,1.47E+12,7/31/2016 12:05,12,5,7,7,2016
nc71104484,50,1.13,20,0.54,0.01418,"8km WNW of Cobb, California",38.8381667,-122.8173333,California,31,1.47E+12,7/31/2016 12:05,12,5,7,31,2016
nc72670056,97,0.89,12,1.46,0.01141,"6km NW of The Geysers, California",38.8110008,-122.8148346,California,31,1.47E+12,7/31/2016 12:06,12,6,7,16,2016
ci37644520,31,2.25,78,2.71,0.03429,"16km SW of Westmorland, CA",32.954,-115.7605,California,31,1.47E+12,7/31/2016 12:06,12,6,7,46,2016
ci37644544,30,4.03,266,3.2,0.03565,"16km SW of Westmorland, CA",32.9583333,-115.7605,California,31,1.47E+12,7/31/2016 12:21,12,21,7,5,2016
ci37644560,79,1.03,16,14.13,0.04927,"23km SSW of La Quinta, CA",33.4743333,-116.4188333,California,31,1.47E+12,7/31/2016 12:26,12,26,7,35,2016
nc71104824,112,0.78,9,7.11,0.03014,"2km E of Ridgemark, California",36.8116667,-121.3355,California,31,1.47E+12,7/31/2016 12:42,12,42,7,25,2016
ci37644576,75,0.59,5,1.34,0.09629,"31km E of Coso Junction, CA",36.0848333,-117.6031667,California,31,1.47E+12,7/31/2016 13:09,13,9,7,35,2016
nc72670111,132,0.9,12,0.65,0.009743,"7km WNW of Cobb, California",38.8474998,-122.805336,California,31,1.47E+12,7/31/2016 13:31,13,31,7,15,2016
ci37644600,126,1.1,19,1.31,0.09395,"32km E of Coso Junction, CA",36.087,-117.5993333,California,31,1.47E+12,7/31/2016 13:48,13,48,7,20,2016
ci37644608,125,1.03,16,1.47,0.09565,"31km E of Coso Junction, CA",36.0853333,-117.6021667,California,31,1.47E+12,7/31/2016 13:49,13,49,7,11,2016
ci37644616,65,0.54,4,8.42,0.03696,"8km S of Pearblossum, CA",34.4311667,-117.9161667,California,31,1.47E+12,7/31/2016 13:54,13,54,7,19,2016
nc72670116,72,1.47,33,-0.83,0.008855,"2km NW of The Geysers, California",38.7966667,-122.7775,California,31,1.47E+12,7/31/2016 14:00,14,0,7,49,2016
nc72670126,72,0.79,10,-0.24,0.004467,"3km NW of The Geysers, California",38.7956667,-122.7831667,California,31,1.47E+12,7/31/2016 14:01,14,1,7,54,2016
ci37644624,61,0.88,12,1.1,0.09645,"31km E of Coso Junction, CA",36.0835,-117.6038333,California,31,1.47E+12,7/31/2016 14:03,14,3,7,36,2016
nc72670131,170,0.7,8,8.86,0.03431,"22km WNW of Chester, California",40.4156667,-121.4605,California,31,1.47E+12,7/31/2016 14:12,14,12,7,33,2016
nc72670136,150,1.89,55,-1.52,0.1811,"28km WSW of Truckee, California",39.2253333,-120.4878333,California,31,1.47E+12,7/31/2016 14:23,14,23,7,18,2016
ci37644632,19,1.95,58,17.81,0.01501,"4km SSW of Idyllwild, CA",33.7035,-116.7296667,California,31,1.47E+12,7/31/2016 14:25,14,25,7,51,2016
nc72670146,32,1.78,49,2.07,0.01256,"6km NW of The Geysers, California",38.81,-122.8131667,California,31,1.47E+12,7/31/2016 14:49,14,49,7,17,2016
nc72670156,63,0.37,2,3.36,0.01628,"24km SW of Coalinga, California",35.9906667,-120.554,California,31,1.47E+12,7/31/2016 15:07,15,7,7,54,2016
ci37644640,97,1.37,29,8.14,0.02647,"7km S of Brawley, CA",32.9171667,-115.5353333,California,31,1.47E+12,7/31/2016 15:10,15,10,7,32,2016
ci37143836,85,1.36,28,7.72,0.02668,"7km S of Brawley, CA",32.9163333,-115.5343333,California,31,1.47E+12,7/31/2016 15:10,15,10,7,37,2016
ci37644656,101,0.92,13,17.01,0.1021,"5km SE of Loma Linda, CA",34.0238333,-117.2205,California,31,1.47E+12,7/31/2016 16:22,16,22,7,55,2016
nc72670186,153,1.06,17,3.96,0.1335,"26km S of Mammoth Lakes, California",37.4163333,-119.0198333,California,31,1.47E+12,7/31/2016 16:41,16,41,7,39,2016
ci37644664,108,0.93,13,7.34,0.1343,"15km NNE of Borrego Springs, CA",33.386,-116.3393333,California,31,1.47E+12,7/31/2016 16:49,16,49,7,2,2016
nc71104829,169,0.59,5,5.91,0.04648,"22km SSW of Gustine, California",37.0765,-121.1186667,California,31,1.47E+12,7/31/2016 16:51,16,51,7,49,2016
nc72670191,80,0.56,5,1.67,0.01126,"7km W of Cobb, California",38.8346672,-122.8101654,California,31,1.47E+12,7/31/2016 17:10,17,10,7,58,2016
nc72670196,55,1.6,39,7.98,0.03825,"1km NE of San Ramon, California",37.7895,-121.9641667,California,31,1.47E+12,7/31/2016 17:12,17,12,7,40,2016
ci37644672,133,1,15,13.36,0.06421,"3km SSE of Chino Hills, CA",33.9651667,-117.7463333,California,31,1.47E+12,7/31/2016 17:26,17,26,7,23,2016
nc72670201,82,1.16,21,8.47,0.05024,"25km NE of Soledad, California",36.564,-121.0993333,California,31,1.47E+12,7/31/2016 17:26,17,26,7,44,2016
nc72670206,73,0.25,1,1.75,0.009799,"7km W of Cobb, California",38.8315,-122.803,California,31,1.47E+12,7/31/2016 17:52,17,52,7,1,2016
nc72670211,192,1.12,19,7.15,0.03216,"22km WNW of Chester, California",40.4053333,-121.4636667,California,31,1.47E+12,7/31/2016 18:04,18,4,7,31,2016
nc72670216,103,1.65,42,7.28,0.0319,"22km WNW of Chester, California",40.4043333,-121.4636667,California,31,1.47E+12,7/31/2016 18:09,18,9,7,2,2016
ci37644680,22,1.91,56,4.24,0.04476,"3km SW of Anza, CA",33.5336667,-116.6991667,California,31,1.47E+12,7/31/2016 18:29,18,29,7,25,2016
nc72670226,95,1.11,19,0.68,0.005672,"4km NW of The Geysers, California",38.8040009,-122.800499,California,31,1.47E+12,7/31/2016 18:45,18,45,7,3,2016
ci37644688,80,0.61,6,1.59,0.03628,"12km NE of Little Lake, CA",36.0085,-117.805,California,31,1.47E+12,7/31/2016 19:01,19,1,7,14,2016
ci37644696,78,0.75,9,9.16,0.04772,"2km NNW of Rancho Cucamonga, CA",34.1435,-117.5875,California,31,1.47E+12,7/31/2016 19:14,19,14,7,52,2016
nc72670236,235,0.74,8,3.24,0.06912,"6km SW of Tamalpais-Homestead Valley, California",37.8368333,-122.5813333,California,31,1.47E+12,7/31/2016 19:27,19,27,7,46,2016
nc72670231,102,0.26,1,2.03,0.005322,"6km WNW of The Geysers, California",38.812,-122.8236667,California,31,1.47E+12,7/31/2016 19:28,19,28,7,8,2016
ci37644720,121,0.58,5,10.36,0.03888,"22km SSW of La Quinta, CA",33.4855,-116.4148333,California,31,1.47E+12,7/31/2016 20:59,20,59,7,14,2016
ci37644728,28,1.38,29,14.99,0.04176,"5km WSW of Beaumont, CA",33.9113333,-117.0293333,California,31,1.47E+12,7/31/2016 21:28,21,28,7,13,2016
ci37644736,106,1.11,19,1.1,0.1843,"32km SSW of Ludlow, CA",34.4401667,-116.2503333,California,31,1.47E+12,7/31/2016 21:37,21,37,7,40,2016
ci37644752,63,0.82,10,2.15,0.08893,"7km ESE of Valle Vista, CA",33.7225,-116.82,California,31,1.47E+12,7/31/2016 22:40,22,40,7,27,2016
ci37644760,66,0.8,10,9.21,0.05603,"14km ESE of Anza, CA",33.5013333,-116.5325,California,31,1.47E+12,7/31/2016 22:48,22,48,7,29,2016
ci37644768,96,1.13,20,0.89,0.1457,"12km S of Olancha, CA",36.1731667,-118.0213333,California,31,1.47E+12,7/31/2016 22:52,22,52,7,6,2016
nc72670246,165,1.27,25,2.04,0.0499,"9km WSW of The Geysers, California",38.75,-122.8633333,California,31,1.47E+12,7/31/2016 23:02,23,2,7,16,2016
nc72670251,67,0.25,1,2.44,0.008012,"6km NW of The Geysers, California",38.818,-122.8176667,California,31,1.47E+12,7/31/2016 23:02,23,2,7,36,2016
nc72670256,184,0.64,6,-0.52,0.1064,"24km SSW of Mammoth Lakes, California",37.4471667,-119.0801667,California,31,1.47E+12,7/31/2016 23:37,23,37,7,5,2016
ci37644784,48,0.87,12,9.27,0.1379,"16km ESE of Julian, CA",33.037,-116.4418333,California,1,1.47E+12,8/1/2016 00:15,0,15,8,49,2016
nc72670266,129,1.17,21,11.21,0.03934,"6km WNW of West Bishop, California",37.3816667,-118.5291667,California,1,1.47E+12,8/1/2016 00:17,0,17,8,50,2016
ci37644792,82,1.17,21,1.22,0.09462,"32km E of Coso Junction, CA",36.0835,-117.6015,California,1,1.47E+12,8/1/2016 00:21,0,21,8,37,2016
nc72670296,66,1.76,48,9.84,0.1559,"3km E of Saint Helena, California",38.5073333,-122.4316667,California,1,1.47E+12,8/1/2016 01:15,1,15,8,37,2016
nc72670301,68,1.72,46,10.85,0.1532,"3km E of Saint Helena, California",38.5078333,-122.4275,California,1,1.47E+12,8/1/2016 01:16,1,16,8,34,2016
nc72670306,118,0.93,14,5.92,0.06498,"25km SE of Mammoth Lakes, California",37.4628333,-118.7971667,California,1,1.47E+12,8/1/2016 01:17,1,17,8,13,2016
nn00554020,105.65,0.5,4,9.9,0.101,"8km NNW of Truckee, California",39.4015,-120.2078,California,1,1.47E+12,8/1/2016 01:21,1,21,8,30,2016
nc71104844,159,0.78,9,7.27,0.08919,"9km NE of Hollister, California",36.9133333,-121.3333333,California,1,1.47E+12,8/1/2016 01:22,1,22,8,6,2016
nc72670321,125,0.9,12,1.43,0.009474,"1km NNE of The Geysers, California",38.7886658,-122.746666,California,1,1.47E+12,8/1/2016 01:42,1,42,8,11,2016
ci37644824,47,0.43,3,3.02,0.02268,"4km WNW of Anza, CA",33.5725,-116.7115,California,1,1.47E+12,8/1/2016 01:46,1,46,8,44,2016
ci37644840,45,1.56,37,2.62,0.122,"21km SSW of Little Lake, CA",35.7745,-118.0311667,California,1,1.47E+12,8/1/2016 01:57,1,57,8,32,2016
nc72670331,89,0.86,11,1.58,0.008782,"2km E of The Geysers, California",38.7794991,-122.7251663,California,1,1.47E+12,8/1/2016 02:00,2,0,8,1,2016
ci37644848,52,0.98,15,14.84,0.08924,"6km NE of Beaumont, CA",33.96,-116.93,California,1,1.47E+12,8/1/2016 02:09,2,9,8,21,2016
nc72670336,307,1.67,43,2.65,0.3053,"11km NNE of Ahwahnee, California",37.4526667,-119.6661667,California,1,1.47E+12,8/1/2016 02:20,2,20,8,59,2016
nc71104479,76,0.22,1,1.62,0.009469,"4km W of Cobb, California",38.8223333,-122.7771667,California,1,1.47E+12,8/1/2016 02:44,2,44,8,41,2016
nc72670341,80,0.33,2,2.28,0.00708,"3km S of Cobb, California",38.7895,-122.7248333,California,1,1.47E+12,8/1/2016 02:45,2,45,8,4,2016
nc72670346,103,0.9,12,1.42,0.009057,"1km NE of The Geysers, California",38.7871666,-122.7471695,California,1,1.47E+12,8/1/2016 02:47,2,47,8,37,2016
nc72670351,93,1.38,29,6.03,0.0744,"16km SSE of Livermore, California",37.5486667,-121.6808333,California,1,1.47E+12,8/1/2016 02:50,2,50,8,47,2016
nc72670356,102,0.89,12,1.1,0.01478,"5km W of Cobb, California",38.8258324,-122.7906647,California,1,1.47E+12,8/1/2016 03:24,3,24,8,40,2016
ci37644856,108,0.22,1,10.37,0.05642,"8km SW of Anza, CA",33.5095,-116.7476667,California,1,1.47E+12,8/1/2016 03:25,3,25,8,57,2016
nc72670361,40,1.01,16,1.51,0.01191,"5km W of Cobb, California",38.8221667,-122.7908333,California,1,1.47E+12,8/1/2016 03:26,3,26,8,7,2016
nc71104849,116,0.86,11,10.34,0.09723,"7km NE of Gilroy, California",37.0525,-121.5111667,California,1,1.47E+12,8/1/2016 03:43,3,43,8,10,2016
ci37644872,62,0.38,2,12.74,0.07456,"19km ESE of Anza, CA",33.4738333,-116.4925,California,1,1.47E+12,8/1/2016 04:08,4,8,8,12,2016
nn00554095,212.07,1.1,19,10,0.22,"10km W of Big Pine, California",37.1669,-118.4081,California,1,1.47E+12,8/1/2016 04:23,4,23,8,55,2016
nc72670371,48,1.68,43,1.68,0.0103,"6km W of Cobb, California",38.8255,-122.7971667,California,1,1.47E+12,8/1/2016 04:28,4,28,8,18,2016
nc72670376,115,1.87,54,8.6,0.2004,"14km WSW of Arbuckle, California",38.9543333,-122.2048333,California,1,1.47E+12,8/1/2016 04:38,4,38,8,15,2016
nc72670381,193,0.35,2,1.16,0.02512,"6km SSW of Mammoth Lakes, California",37.5971667,-118.9965,California,1,1.47E+12,8/1/2016 04:43,4,43,8,41,2016
nc72670386,82,0.57,5,1.89,0.005853,"9km WNW of Cobb, California",38.840332,-122.828331,California,1,1.47E+12,8/1/2016 04:46,4,46,8,22,2016
ci37644880,106,0.79,10,5.74,0.1313,"15km N of Borrego Springs, CA",33.3888333,-116.3545,California,1,1.47E+12,8/1/2016 05:02,5,2,8,16,2016
ci37644888,34,1.21,23,3.42,0.1289,"15km N of Borrego Springs, CA",33.3883333,-116.3603333,California,1,1.47E+12,8/1/2016 05:03,5,3,8,49,2016
nc72670396,79,0.36,2,1.81,0.0119,"9km WNW of The Geysers, California",38.8161667,-122.8523333,California,1,1.47E+12,8/1/2016 05:12,5,12,8,46,2016
nc72670401,246,1.9,56,-0.25,0.4138,"52km WSW of Guadalupe, California",34.8113333,-121.1126667,California,1,1.47E+12,8/1/2016 05:17,5,17,8,29,2016
nc72670406,113,0.56,5,3.33,0.0295,"23km SW of Coalinga, California",36.0121667,-120.5728333,California,1,1.47E+12,8/1/2016 05:21,5,21,8,21,2016
ci37644912,140,0.1,0,13.24,0.07624,"19km ESE of Anza, CA",33.4745,-116.4958333,California,1,1.47E+12,8/1/2016 05:45,5,45,8,47,2016
nc72670421,61,0.66,7,5.38,0.006225,"12km NNE of San Simeon, California",35.7475,-121.142,California,1,1.47E+12,8/1/2016 06:00,6,0,8,16,2016
ci37644920,77,1.27,25,1.38,0.1445,"12km S of Olancha, CA",36.1698333,-118.0213333,California,1,1.47E+12,8/1/2016 06:10,6,10,8,21,2016
ci37143716,118,0.54,4,6.32,0.05066,"17km NNE of Ridgecrest, CA",35.769,-117.6218333,California,1,1.47E+12,8/1/2016 06:10,6,10,8,32,2016
ci37644936,80,0.89,12,4.21,0.03603,"9km SSE of Yucca Valley, CA",34.0353333,-116.4046667,California,1,1.47E+12,8/1/2016 06:54,6,54,8,11,2016
nc72670446,159,0.88,12,2.55,0.002104,"7km W of Cobb, California",38.8255005,-122.8101654,California,1,1.47E+12,8/1/2016 06:58,6,58,8,39,2016
nc72670451,165,0.3,1,7.38,0.03163,"22km NW of Chester, California",40.4233333,-121.4453333,California,1,1.47E+12,8/1/2016 07:06,7,6,8,34,2016
nc72670955,325,1.71,45,3.12,0.2326,"23km S of Tulelake, California",41.7438333,-121.4398333,California,1,1.47E+12,8/1/2016 07:10,7,10,8,13,2016
nc72670461,213,0.04,0,-0.36,0.03083,"7km SSE of Mammoth Lakes, California",37.5865,-118.9546667,California,1,1.47E+12,8/1/2016 07:26,7,26,8,43,2016
nc72670456,80,1.62,40,6.42,0.05393,"26km NE of Soledad, California",36.618,-121.1496667,California,1,1.47E+12,8/1/2016 07:28,7,28,8,2,2016
ci37644944,75,1.29,26,1.22,0.09663,"31km E of Coso Junction, CA",36.0846667,-117.6036667,California,1,1.47E+12,8/1/2016 07:35,7,35,8,4,2016
nc72670486,62,0.98,15,1.06,0.009165,"1km NE of The Geysers, California",38.7885017,-122.7463303,California,1,1.47E+12,8/1/2016 08:22,8,22,8,46,2016
nc72670511,85,1.19,22,4.8,0.01104,"28km E of King City, California",36.2263333,-120.8058333,California,1,1.47E+12,8/1/2016 08:23,8,23,8,56,2016
nc72670516,126,0.33,2,6.05,0.01113,"11km ESE of Mammoth Lakes, California",37.6208333,-118.8436667,California,1,1.47E+12,8/1/2016 09:06,9,6,8,23,2016
nc72670521,67,1.71,45,7.12,0.1544,"2km ESE of Deer Park, California",38.5221667,-122.4385,California,1,1.47E+12,8/1/2016 09:34,9,34,8,49,2016
ci37644992,109,0.63,6,5.51,0.02358,"2km WSW of Borrego Springs, CA",33.252,-116.3966667,California,1,1.47E+12,8/1/2016 09:47,9,47,8,24,2016
ci37645016,49,1.26,24,3.13,0.05575,"21km ESE of Little Lake, CA",35.8981667,-117.6816667,California,1,1.47E+12,8/1/2016 10:13,10,13,8,57,2016
ci37645024,56,0.97,14,8.62,0.08443,"4km N of Fontana, CA",34.1331667,-117.4513333,California,1,1.47E+12,8/1/2016 10:16,10,16,8,52,2016
nc72670556,233,0.05,0,6.04,0.0278,"12km SE of Mammoth Lakes, California",37.576,-118.8593333,California,1,1.47E+12,8/1/2016 10:19,10,19,8,9,2016
nc72670561,154,0.82,10,0.42,0.02662,"7km SSE of Mammoth Lakes, California",37.5901667,-118.9343333,California,1,1.47E+12,8/1/2016 10:25,10,25,8,54,2016
nc72670566,84,0.88,12,2.36,0.0006218,"6km NW of The Geysers, California",38.8231659,-122.8093338,California,1,1.47E+12,8/1/2016 11:04,11,4,8,11,2016
nc72670571,77,1.1,19,2.62,0.01123,"6km W of Cobb, California",38.8256683,-122.7959976,California,1,1.47E+12,8/1/2016 11:07,11,7,8,14,2016
nc72670576,69,1.77,48,1.83,0.004668,"4km WNW of Cobb, California",38.834,-122.7738333,California,1,1.47E+12,8/1/2016 11:12,11,12,8,14,2016
nc72670581,110,1.09,18,8.04,0.06492,"23km SE of Mammoth Lakes, California",37.4843333,-118.8031667,California,1,1.47E+12,8/1/2016 11:23,11,23,8,17,2016
nc72670586,303,0.59,5,3.61,0.08139,"20km SE of Mammoth Lakes, California",37.5096667,-118.8118333,California,1,1.47E+12,8/1/2016 11:49,11,49,8,5,2016
nc72670591,73,0.62,6,2.48,0.005765,"7km NW of The Geysers, California",38.8133333,-122.8245,California,1,1.47E+12,8/1/2016 12:10,12,10,8,42,2016
ci37645096,51,1.76,48,7.11,0.02822,"14km S of Big Bear Lake, CA",34.1195,-116.9223333,California,1,1.47E+12,8/1/2016 12:30,12,30,8,7,2016
nc72668925,69,1.07,18,4.11,0.0187,"20km SSE of Ridgemark, California",36.6491667,-121.2643333,California,1,1.47E+12,8/1/2016 13:00,13,0,8,59,2016
nc72668930,67,2.18,73,12.6,0.03043,"3km E of Saint Helena, California",38.5088333,-122.4325,California,1,1.47E+12,8/1/2016 13:09,13,9,8,23,2016
nn00554118,140.07,0.2,1,0.5,0.048,"3km NW of Tahoe Vista, California",39.258,-120.0793,California,1,1.47E+12,8/1/2016 13:09,13,9,8,49,2016
nc71104854,168,0.77,9,1.66,0.05662,"25km NE of Hollister, California",37.0203333,-121.2001667,California,1,1.47E+12,8/1/2016 13:12,13,12,8,56,2016
nc72668935,102,1.79,49,1.33,0.07573,"19km SE of Mammoth Lakes, California",37.5141667,-118.8283333,California,1,1.47E+12,8/1/2016 13:15,13,15,8,0,2016
nc72668940,102,0.91,13,0.67,0.07556,"19km SE of Mammoth Lakes, California",37.5143333,-118.8285,California,1,1.47E+12,8/1/2016 13:16,13,16,8,41,2016
nc72668945,133,1.35,28,-0.32,0.0164,"11km E of Quarry near Portola Valley, CA",37.3183333,-122.0993333,California,1,1.47E+12,8/1/2016 13:29,13,29,8,23,2016
nc72668950,61,2.8,121,5.62,0.008365,"12km NNE of San Simeon, California",35.7458333,-121.1395,California,1,1.47E+12,8/1/2016 13:39,13,39,8,58,2016
nc72668955,57,1.88,54,11.11,0.1367,"3km E of Saint Helena, California",38.506,-122.4358333,California,1,1.47E+12,8/1/2016 13:42,13,42,8,58,2016
nc72668960,123,1.18,21,1.11,0.01892,"5km SSE of Mammoth Lakes, California",37.603,-118.9361667,California,1,1.47E+12,8/1/2016 13:56,13,56,8,24,2016
nc72668965,170,0.42,3,1.13,0.01934,"5km SSE of Mammoth Lakes, California",37.6028333,-118.9366667,California,1,1.47E+12,8/1/2016 13:56,13,56,8,42,2016
ci37645120,62,1.85,53,-0.57,0.03329,"7km SSE of Home Gardens, CA",33.8226667,-117.4845,California,1,1.47E+12,8/1/2016 14:00,14,0,8,5,2016
ci37645136,99,0.7,8,5.8,0.06199,"6km SSW of Devore, CA",34.176,-117.4326667,California,1,1.47E+12,8/1/2016 14:05,14,5,8,37,2016
nc72668975,104,0.66,7,-0.06,0.006189,"3km WNW of Cobb, California",38.8305016,-122.760498,California,1,1.47E+12,8/1/2016 14:08,14,8,8,8,2016
nc72668985,103,0.56,5,3.92,0.01553,"1km NNW of The Geysers, California",38.7915001,-122.7681656,California,1,1.47E+12,8/1/2016 14:16,14,16,8,28,2016
nc72669005,177,0.54,4,7.81,0.03185,"22km WNW of Chester, California",40.4115,-121.46,California,1,1.47E+12,8/1/2016 14:26,14,26,8,14,2016
nc72669010,195,0.54,4,7.24,0.0324,"22km WNW of Chester, California",40.4043333,-121.4643333,California,1,1.47E+12,8/1/2016 14:30,14,30,8,3,2016
nc72669015,284,0.42,3,4.86,0.05945,"12km SE of Mammoth Lakes, California",37.5596667,-118.8798333,California,1,1.47E+12,8/1/2016 14:33,14,33,8,17,2016
nc72669020,163,0.91,13,3.92,0.01488,"1km NW of The Geysers, California",38.7915001,-122.7689972,California,1,1.47E+12,8/1/2016 14:38,14,38,8,11,2016
ci37645152,133,1.16,21,7.15,0.04001,"7km S of Brawley, CA",32.9188333,-115.5178333,California,1,1.47E+12,8/1/2016 14:40,14,40,8,23,2016
ci37645168,112,1.28,25,12.46,0.01325,"5km SSW of Frazier Park, CA",34.7821667,-118.9556667,California,1,1.47E+12,8/1/2016 14:46,14,46,8,29,2016
nc72669025,144,0.63,6,6.68,0.0118,"21km WSW of Avenal, California",35.9196667,-120.338,California,1,1.47E+12,8/1/2016 14:57,14,57,8,37,2016
nc72669030,314,0.34,2,2.57,0.07191,"14km SE of Mammoth Lakes, California",37.5475,-118.874,California,1,1.47E+12,8/1/2016 15:13,15,13,8,19,2016
ci37645184,97,0.98,15,-0.52,0.03941,"7km N of Murrieta Hot Springs, CA",33.6273333,-117.1613333,California,1,1.47E+12,8/1/2016 15:21,15,21,8,52,2016
nc72669035,52,2.13,70,3.22,0.01334,"23km ENE of Soledad, California",36.4963333,-121.0745,California,1,1.47E+12,8/1/2016 15:26,15,26,8,10,2016
nc72669040,92,1.03,16,2.91,0.018,"23km ENE of Soledad, California",36.4915,-121.077,California,1,1.47E+12,8/1/2016 15:31,15,31,8,22,2016
ci37645200,105,1.18,21,15.86,0.1765,"16km N of Piru, CA",34.5595,-118.8246667,California,1,1.47E+12,8/1/2016 15:32,15,32,8,15,2016
nc72669055,102,1.23,23,1.29,0.0749,"19km SE of Mammoth Lakes, California",37.515,-118.8288333,California,1,1.47E+12,8/1/2016 15:48,15,48,8,27,2016
nc72669060,102,1.46,33,1.63,0.07557,"19km SE of Mammoth Lakes, California",37.5143333,-118.8278333,California,1,1.47E+12,8/1/2016 15:50,15,50,8,50,2016
ci37645224,129,1.19,22,-0.97,0.06876,"12km SE of Tehachapi, CA",35.0593333,-118.3476667,California,1,1.47E+12,8/1/2016 16:01,16,1,8,55,2016
ci37645248,59,2.02,63,8.64,0.05336,"8km NE of Trabuco Canyon, CA",33.7235,-117.5325,California,1,1.47E+12,8/1/2016 16:54,16,54,8,39,2016
nc71104884,186,0.67,7,8.54,0.0344,"21km SSW of Gustine, California",37.0865,-121.1033333,California,1,1.47E+12,8/1/2016 16:58,16,58,8,18,2016
ci37645280,150,1.6,39,-0.14,0.08663,"46km NE of Holtville, CA",33.0588333,-114.986,California,1,1.47E+12,8/1/2016 18:00,18,0,8,52,2016
ci37645288,108,1.2,22,13.01,0.01732,"4km SSW of Frazier Park, CA",34.7893333,-118.9571667,California,1,1.47E+12,8/1/2016 18:05,18,5,8,18,2016
nc72669080,86,0.89,12,0.58,0.006373,"7km W of Cobb, California",38.8289986,-122.8061676,California,1,1.47E+12,8/1/2016 18:19,18,19,8,27,2016
ci37645312,134,0.51,4,8.58,0.08239,"8km NE of Trabuco Canyon, CA",33.7001667,-117.5156667,California,1,1.47E+12,8/1/2016 18:32,18,32,8,1,2016
ci37645320,141,0.92,13,2.32,0.08989,"11km ENE of Borrego Springs, CA",33.2921667,-116.268,California,1,1.47E+12,8/1/2016 18:40,18,40,8,26,2016
nc72669090,85,1.81,50,7.28,0.02976,"5km WSW of Cupertino, California",37.3041667,-122.088,California,1,1.47E+12,8/1/2016 19:19,19,19,8,24,2016
ci37645328,110,1.43,31,0.26,0.1082,"5km NNW of Boron, CA",35.0416667,-117.677,California,1,1.47E+12,8/1/2016 19:32,19,32,8,5,2016
nc72669095,44,3.16,281,10.91,0.0712,"4km NE of Kenwood, California",38.4408333,-122.5056667,California,1,1.47E+12,8/1/2016 19:32,19,32,8,47,2016
nc72669100,120,0.65,6,9.56,0.06124,"7km SE of Bishop, California",37.3171667,-118.3311667,California,1,1.47E+12,8/1/2016 19:37,19,37,8,54,2016
nc72669115,107,0.56,5,3.7,0.01286,"8km WNW of The Geysers, California",38.8139992,-122.8466644,California,1,1.47E+12,8/1/2016 19:57,19,57,8,24,2016
nc72669140,50,2.94,217,10.44,0.03362,"3km SW of American Canyon, California",38.153,-122.2905,California,1,1.47E+12,8/1/2016 20:35,20,35,8,26,2016
ci37645344,130,0.61,6,8.11,0.04596,"5km ESE of Palomar Observatory, CA",33.3365,-116.8116667,California,1,1.47E+12,8/1/2016 20:39,20,39,8,20,2016
nc72669160,175,0.65,6,0.74,0.06109,"12km SSE of Mammoth Lakes, California",37.5515,-118.9046667,California,1,1.47E+12,8/1/2016 20:47,20,47,8,21,2016
ci37645368,14,2.26,79,16.7,0.01037,"2km SE of Loma Linda, CA",34.0383333,-117.2508333,California,1,1.47E+12,8/1/2016 20:48,20,48,8,56,2016
nc72669170,151,0.96,14,7.49,0.0292,"4km SW of American Canyon, California",38.1456667,-122.2961667,California,1,1.47E+12,8/1/2016 20:56,20,56,8,35,2016
nc72669175,111,1.2,22,1.61,0.004723,"7km WNW of The Geysers, California",38.8048333,-122.8323333,California,1,1.47E+12,8/1/2016 21:16,21,16,8,7,2016
nn00554206,199.45,0.9,12,2.8,0.237,"35km E of Big Pine, California",37.112,-117.9007,California,1,1.47E+12,8/1/2016 21:39,21,39,8,5,2016
ci37645400,87,0.85,11,12.35,0.06459,"20km ESE of Anza, CA",33.4765,-116.479,California,1,1.47E+12,8/1/2016 21:45,21,45,8,29,2016
nc72669190,102,0.8,10,5.25,0.03126,"8km ENE of San Simeon, California",35.6823333,-121.1153333,California,1,1.47E+12,8/1/2016 22:03,22,3,8,49,2016
nc72669210,125,1.44,32,2.77,0.1106,"8km NNW of Chester, California",40.3711667,-121.2821667,California,1,1.47E+12,8/1/2016 22:26,22,26,8,46,2016
nc71104889,316,0.52,4,2.77,0.04942,"27km NE of Hollister, California",37.0311667,-121.191,California,1,1.47E+12,8/1/2016 22:27,22,27,8,0,2016
ci37645432,198,0.29,1,7.77,0.05936,"15km ESE of Anza, CA",33.4938333,-116.5311667,California,1,1.47E+12,8/1/2016 22:38,22,38,8,29,2016
nc71104894,192,0.22,1,1.53,0.0466,"26km NE of Hollister, California",37.0306667,-121.201,California,1,1.47E+12,8/1/2016 22:50,22,50,8,33,2016
nc72669215,114,0.57,5,5.44,0.02069,"8km ESE of Mammoth Lakes, California",37.6091667,-118.8878333,California,1,1.47E+12,8/1/2016 22:53,22,53,8,0,2016
ci37645440,102,0.78,9,14.69,0.02755,"11km NNE of Banning, CA",34.0191667,-116.8348333,California,1,1.47E+12,8/1/2016 22:58,22,58,8,50,2016
nc72669235,107,1.13,20,5.85,0.02001,"7km NE of San Simeon, California",35.683,-121.1291667,California,1,1.47E+12,8/1/2016 23:45,23,45,8,16,2016
ci37645472,53,0.76,9,16.18,0.09784,"2km NNW of Cabazon, CA",33.9316667,-116.7956667,California,1,1.47E+12,8/1/2016 23:50,23,50,8,51,2016
nc72669240,163,0.88,12,8.49,0.023,"20km WSW of Avenal, California",35.913,-120.3213333,California,1,1.47E+12,8/1/2016 23:55,23,55,8,37,2016
nc72669250,115,0.84,11,4.8,0.03166,"7km ENE of San Simeon, California",35.6763333,-121.1155,California,1,1.47E+12,8/1/2016 23:56,23,56,8,15,2016
nc72669245,136,0.89,12,2.35,0.009188,"6km WNW of The Geysers, California",38.803833,-122.8193359,California,1,1.47E+12,8/1/2016 23:56,23,56,8,25,2016
nc72669255,151,1.25,24,15.48,0.05389,"5km WNW of West Bishop, California",37.3763333,-118.5021667,California,2,1.47E+12,8/2/2016 00:22,0,22,8,6,2016
ci37645480,42,0.49,4,5.08,0.0371,"2km SW of Anza, CA",33.5398333,-116.6933333,California,2,1.47E+12,8/2/2016 00:22,0,22,8,46,2016
nc72669265,107,0.44,3,2.79,0.03223,"24km SW of Coalinga, California",36.0106667,-120.5763333,California,2,1.47E+12,8/2/2016 00:27,0,27,8,37,2016
nc72669275,176,0.79,10,0.12,0.1339,"25km SSE of Mammoth Lakes, California",37.454,-118.8136667,California,2,1.47E+12,8/2/2016 00:36,0,36,8,40,2016
nc72669280,123,0.76,9,-0.31,0.1339,"25km SSE of Mammoth Lakes, California",37.4561667,-118.8113333,California,2,1.47E+12,8/2/2016 00:40,0,40,8,50,2016
ci37645496,40,1.43,31,1.73,0.009974,"15km NE of Little Lake, CA",36.0203333,-117.776,California,2,1.47E+12,8/2/2016 00:51,0,51,8,26,2016
nc72669285,52,1.56,37,3.29,0.07913,"10km WNW of Redwood Valley, California",39.2835,-123.3203333,California,2,1.47E+12,8/2/2016 00:53,0,53,8,44,2016
ci37645544,43,1.09,18,8.21,0.04834,"8km N of Fontana, CA",34.1651667,-117.4716667,California,2,1.47E+12,8/2/2016 01:07,1,7,8,51,2016
ci37645552,56,1.71,45,16.55,0.1756,"19km ENE of Maricopa, CA",35.1251667,-119.2066667,California,2,1.47E+12,8/2/2016 01:10,1,10,8,51,2016
nc72669295,119,1.19,22,6.44,0.09692,"22km SSE of Mammoth Lakes, California",37.4775,-118.8428333,California,2,1.47E+12,8/2/2016 01:10,1,10,8,58,2016
nc72669300,109,0.98,15,4.17,0.02364,"28km NE of Soledad, California",36.5765,-121.0688333,California,2,1.47E+12,8/2/2016 01:16,1,16,8,37,2016
ci37645560,71,0.95,14,16.37,0.09688,"3km ESE of Loma Linda, CA",34.0353333,-117.2376667,California,2,1.47E+12,8/2/2016 01:30,1,30,8,41,2016
nc72669305,123,0.89,12,-0.94,0.133,"25km SE of Mammoth Lakes, California",37.4576667,-118.8103333,California,2,1.47E+12,8/2/2016 01:44,1,44,8,46,2016
nc72669310,124,0.94,14,2.62,0.01015,"6km NW of The Geysers, California",38.8148346,-122.8186646,California,2,1.47E+12,8/2/2016 01:47,1,47,8,47,2016
nc72669325,70,1.24,24,11.07,0.1352,"3km E of Saint Helena, California",38.5073333,-122.4315,California,2,1.47E+12,8/2/2016 02:34,2,34,8,52,2016
nc72669320,152,0.53,4,2.48,0.00463,"6km NW of The Geysers, California",38.8230019,-122.8041687,California,2,1.47E+12,8/2/2016 02:35,2,35,8,41,2016
nc72669330,68,1.78,49,1.52,0.03871,"25km ENE of Greenfield, California",36.4063333,-120.9768333,California,2,1.47E+12,8/2/2016 02:51,2,51,8,40,2016
